[
  {
    "name": "Vastrapur",
    "latitude": "23.0376238",
    "longitude": 72.5277849
  },
  {
    "name": "Nava Naroda",
    "latitude": "23.0698417",
    "longitude": 72.6730365
  },
  {
    "name": "Gota",
    "latitude": "23.1012966",
    "longitude": 72.5407052
  },
  {
    "name": "Vasna",
    "latitude": "23.003922",
    "longitude": 72.5460687
  },
  {
    "name": "Lambha",
    "latitude": "22.9342303",
    "longitude": 72.5754877
  },
  {
    "name": "Vatva",
    "latitude": "22.9664255",
    "longitude": 72.6159326
  },
  {
    "name": "Vastral",
    "latitude": "22.9978372",
    "longitude": 72.665991
  },
  {
    "name": "Shilaj",
    "latitude": "23.0557134",
    "longitude": 72.4686607
  },
  {
    "name": "Isanpur",
    "latitude": "22.976056",
    "longitude": 72.6017625
  },
  {
    "name": "Bopal",
    "latitude": "23.0336769",
    "longitude": 72.4634117
  },
  {
    "name": "Sanand",
    "latitude": "22.9919637",
    "longitude": 72.3772986
  },
  {
    "name": "Hathijan",
    "latitude": "22.9393789",
    "longitude": 72.6654211
  },
  {
    "name": "Sola",
    "latitude": "23.0757184",
    "longitude": 72.5090366
  },
  {
    "name": "Thaltej",
    "latitude": "23.0504131",
    "longitude": 72.4990891
  },
  {
    "name": "Changodar",
    "latitude": "22.9147264",
    "longitude": 72.4344154
  },
  {
    "name": "Memnagar",
    "latitude": "23.0523843",
    "longitude": 72.5337182
  },
  {
    "name": "Tragad",
    "latitude": "23.1209834",
    "longitude": 72.5601795
  },
  {
    "name": "Ognaj",
    "latitude": "23.1141539",
    "longitude": 72.5158152
  },
  {
    "name": "Ambavadi",
    "latitude": "23.0223701",
    "longitude": 72.5430438
  },
  {
    "name": "Ranip",
    "latitude": "23.0810287",
    "longitude": 72.5768002
  },
  {
    "name": "Chandkheda",
    "latitude": "23.109098",
    "longitude": 72.5849179
  },
  {
    "name": "Bhadaj",
    "latitude": "23.0867539",
    "longitude": 72.4838768
  },
  {
    "name": "Sanathal",
    "latitude": "22.966896",
    "longitude": 72.4709341
  },
  {
    "name": "Odhav",
    "latitude": "23.0249514",
    "longitude": 72.6729322
  },
  {
    "name": "Chanakyapuri",
    "latitude": "23.0787852",
    "longitude": 72.5368554
  },
  {
    "name": "Bapunagar",
    "latitude": "23.0386956",
    "longitude": 72.6307533
  },
  {
    "name": "Shela",
    "latitude": "22.9981479",
    "longitude": 72.4622107
  },
  {
    "name": "Ghodsar",
    "latitude": "22.9755494",
    "longitude": 72.6154686
  },
  {
    "name": "Nikol",
    "latitude": "23.0499889",
    "longitude": 72.6699673
  },
  {
    "name": "Sarkhej",
    "latitude": "22.9778146",
    "longitude": 72.4979419
  },
  {
    "name": "Shahibuag",
    "latitude": "23.0560932",
    "longitude": 72.5961666
  },
  {
    "name": "Juhapura",
    "latitude": "22.9940437",
    "longitude": 72.5277471
  },
  {
    "name": "Prahlad Nagar",
    "latitude": "23.0120338",
    "longitude": 72.510754
  },
  {
    "name": "Science City",
    "latitude": "23.0714235",
    "longitude": 72.5167854
  },
  {
    "name": "Maninagar",
    "latitude": "22.995165",
    "longitude": 72.604097
  },
  {
    "name": "New Maninagar",
    "latitude": "22.9856595",
    "longitude": 72.6431514
  },
  {
    "name": "South Bopal",
    "latitude": "23.0206198",
    "longitude": 72.4687152
  },
  {
    "name": "Narolgam",
    "latitude": "22.9641614",
    "longitude": 72.5903337
  },
  {
    "name": "Naroda",
    "latitude": "23.0685865",
    "longitude": 72.6535961
  },
  {
    "name": "Jodhpur",
    "latitude": "23.0192808",
    "longitude": 72.5189742
  },
  {
    "name": "Ambli",
    "latitude": "23.0269804",
    "longitude": 72.4833787
  },
  {
    "name": "Santej",
    "latitude": "23.1018926",
    "longitude": 72.474632
  },
  {
    "name": "Paldi",
    "latitude": "23.011157",
    "longitude": 72.5630675
  },
  {
    "name": "Ellisbridge",
    "latitude": "23.0225015",
    "longitude": 72.5739267
  },
  {
    "name": "Naryanpura",
    "latitude": "23.0521705",
    "longitude": 72.5497069
  },
  {
    "name": "Jivraj Park",
    "latitude": "23.0053051",
    "longitude": 72.5367504
  },
  {
    "name": "Makarba",
    "latitude": "22.9960402",
    "longitude": 72.4996699
  },
  {
    "name": "Ghuma",
    "latitude": "23.0296417",
    "longitude": 72.4527576
  },
  {
    "name": "Manipur",
    "latitude": "23.0341462",
    "longitude": 72.4295132
  },
  {
    "name": "Naranpuraa",
    "latitude": "23.0521705",
    "longitude": 72.5497069
  },
  {
    "name": "Navrangpura",
    "latitude": "23.0365437",
    "longitude": 72.5611395
  },
  {
    "name": "Jodhpur Village",
    "latitude": "23.0192808",
    "longitude": 72.5189742
  },
  {
    "name": "Bodakdev",
    "latitude": "23.0386593",
    "longitude": 72.5118581
  },
  {
    "name": "Godhavi",
    "latitude": "23.0231493",
    "longitude": 72.4088003
  },
  {
    "name": "Jagatpur",
    "latitude": "23.1120602",
    "longitude": 72.5482111
  },
  {
    "name": "Satlasana",
    "latitude": "24.0264722",
    "longitude": 72.7943267
  },
  {
    "name": "Sola Village",
    "latitude": "23.0757184",
    "longitude": 72.5090366
  },
  {
    "name": "Satellite",
    "latitude": "23.0301227",
    "longitude": 72.5178289
  },
  {
    "name": "Gurukul",
    "latitude": "23.0445629",
    "longitude": 72.5249288
  },
  {
    "name": "Ghatlodiya",
    "latitude": "23.0747676",
    "longitude": 72.535598
  },
  {
    "name": "New Ranip",
    "latitude": "23.0930152",
    "longitude": 72.5592447
  },
  {
    "name": "Chandlodia",
    "latitude": "23.0829964",
    "longitude": 72.5462774
  },
  {
    "name": "Motera",
    "latitude": "23.1048808",
    "longitude": 72.6028979
  },
  {
    "name": "Vejalpur",
    "latitude": "23.0061051",
    "longitude": 72.5164075
  },
  {
    "name": "Gulbai Tekra",
    "latitude": "23.0271349",
    "longitude": 72.5515384
  },
  {
    "name": "Nava Vadaj",
    "latitude": "23.0675934",
    "longitude": 72.5667133
  },
  {
    "name": "Chandlodiya",
    "latitude": "23.0829964",
    "longitude": 72.5462774
  },
  {
    "name": "Shahibaug",
    "latitude": "23.0560932",
    "longitude": 72.5961666
  },
  {
    "name": "Bhat",
    "latitude": "23.1050173",
    "longitude": 72.6300914
  },
  {
    "name": "Chharodi",
    "latitude": "23.0168145",
    "longitude": 72.271908
  },
  {
    "name": "Amraiwadi",
    "latitude": "22.9996728",
    "longitude": 72.635381
  },
  {
    "name": "Khokhra",
    "latitude": "23.0019268",
    "longitude": 72.6189273
  },
  {
    "name": "Kudasan",
    "latitude": "23.18567",
    "longitude": 72.6339164
  },
  {
    "name": "Ghatlodia",
    "latitude": "23.0747676",
    "longitude": 72.535598
  },
  {
    "name": "Bavla",
    "latitude": "22.8365498",
    "longitude": 72.3627976
  },
  {
    "name": "Kasindra",
    "latitude": "22.8924271",
    "longitude": 72.4912701
  },
  {
    "name": "Keshav Nagar",
    "latitude": "23.0657049",
    "longitude": 72.587026
  },
  {
    "name": "Raipur",
    "latitude": "23.0194906",
    "longitude": 72.5922008
  },
  {
    "name": "Amruthahalli",
    "latitude": "13.0665131",
    "longitude": 77.5966238
  },
  {
    "name": "Andrahalli",
    "latitude": "13.0085936",
    "longitude": 77.4830332
  },
  {
    "name": "Anekal City",
    "latitude": "12.8371576",
    "longitude": 77.6725236
  },
  {
    "name": "Anjanapura",
    "latitude": "12.8580811",
    "longitude": 77.5580713
  },
  {
    "name": "Annapurneshwari Nagar",
    "latitude": "12.9741713",
    "longitude": 77.5880263
  },
  {
    "name": "Ashok Nagar",
    "latitude": "13.0400731",
    "longitude": 80.2159247
  },
  {
    "name": "Attibele",
    "latitude": "12.7782588",
    "longitude": 77.7712834
  },
  {
    "name": "Bagalur",
    "latitude": "12.8310442",
    "longitude": 77.865842
  },
  {
    "name": "Banashankari",
    "latitude": "15.8876779",
    "longitude": 75.7046777
  },
  {
    "name": "Banaswadi",
    "latitude": "13.0141618",
    "longitude": 77.6518539
  },
  {
    "name": "Bannerghatta",
    "latitude": "12.8403298",
    "longitude": 77.5941657
  },
  {
    "name": "Basapura",
    "latitude": "15.3605347",
    "longitude": 76.8455163
  },
  {
    "name": "Basavanagudi",
    "latitude": "12.9417261",
    "longitude": 77.5755021
  },
  {
    "name": "Begur",
    "latitude": "12.88426",
    "longitude": 77.62502
  },
  {
    "name": "Bellandur",
    "latitude": "12.93103185",
    "longitude": 77.6782471
  },
  {
    "name": "Bettadasanapura",
    "latitude": "12.8475411",
    "longitude": 77.6497063
  },
  {
    "name": "Bidrahalli",
    "latitude": "14.5774262",
    "longitude": 74.9285603
  },
  {
    "name": "Bilekahalli",
    "latitude": "12.8979703",
    "longitude": 77.6085699
  },
  {
    "name": "Bommanahalli",
    "latitude": "12.9089453",
    "longitude": 77.6239038
  },
  {
    "name": "Bommasandra",
    "latitude": "12.8162443",
    "longitude": 77.6916113
  },
  {
    "name": "Boovanahalli",
    "latitude": "13.004975",
    "longitude": 76.1403916
  },
  {
    "name": "Brookefield",
    "latitude": "12.96107",
    "longitude": 77.71017
  },
  {
    "name": "Btm Layout",
    "latitude": "12.9151772",
    "longitude": 77.6102821
  },
  {
    "name": "Btm Layout 2Nd Stage",
    "latitude": "12.9140082",
    "longitude": 77.607945
  },
  {
    "name": "Budigere Cross",
    "latitude": "13.0464102",
    "longitude": 77.750307
  },
  {
    "name": "Byatarayanapura",
    "latitude": "13.0666526",
    "longitude": 77.591967
  },
  {
    "name": "Carmelaram",
    "latitude": "12.9111998",
    "longitude": 77.7065133
  },
  {
    "name": "Chamrajpet",
    "latitude": "12.9571328",
    "longitude": 77.567037
  },
  {
    "name": "Chandapura",
    "latitude": "17.4436387",
    "longitude": 77.433391
  },
  {
    "name": "Chandapura Anekal Road",
    "latitude": "12.8082333",
    "longitude": 77.6976689
  },
  {
    "name": "Cheemasandra",
    "latitude": "13.0585212",
    "longitude": 77.73448045
  },
  {
    "name": "Chikka Tirupathi",
    "latitude": "12.8957681",
    "longitude": 77.8671014
  },
  {
    "name": "Chikkalasandra",
    "latitude": "12.9121916",
    "longitude": 77.5476337
  },
  {
    "name": "Cooke Town",
    "latitude": "13.0027852",
    "longitude": 77.624747
  },
  {
    "name": "Cv Raman Nagar",
    "latitude": "17.2510682",
    "longitude": 80.1651978
  },
  {
    "name": "Devanahalli",
    "latitude": "13.2483502",
    "longitude": 77.7134377
  },
  {
    "name": "Doddaballapur",
    "latitude": "13.2929583",
    "longitude": 77.5431463
  },
  {
    "name": "Doddabommasandra",
    "latitude": "13.0649673",
    "longitude": 77.56296571
  },
  {
    "name": "Doddanekundi",
    "latitude": "12.9713194",
    "longitude": 77.6964768
  },
  {
    "name": "Doddathoguru",
    "latitude": "12.8529125",
    "longitude": 77.6556155
  },
  {
    "name": "Electronic City Phase 1",
    "latitude": "12.8496783",
    "longitude": 77.6649749
  },
  {
    "name": "Electronic City Phase 2",
    "latitude": "12.8371576",
    "longitude": 77.6725236
  },
  {
    "name": "Electronic City Phase Ii",
    "latitude": "12.8371576",
    "longitude": 77.6725236
  },
  {
    "name": "Electronics City",
    "latitude": "12.84781",
    "longitude": 77.66319
  },
  {
    "name": "Frazer Town",
    "latitude": "12.996845",
    "longitude": 77.6130165
  },
  {
    "name": "Geddalahalli",
    "latitude": "13.1798508",
    "longitude": 77.2552288
  },
  {
    "name": "Gottigere",
    "latitude": "12.8565317",
    "longitude": 77.5877237
  },
  {
    "name": "Gubbalala Main Road",
    "latitude": "12.8746723",
    "longitude": 77.538075
  },
  {
    "name": "Gunjur",
    "latitude": "12.9213",
    "longitude": 77.734
  },
  {
    "name": "Harlur",
    "latitude": "12.8920326",
    "longitude": 77.65503767
  },
  {
    "name": "Hbr Layout",
    "latitude": "13.0358698",
    "longitude": 77.6323597
  },
  {
    "name": "Hebbal",
    "latitude": "13.0382184",
    "longitude": 77.5919
  },
  {
    "name": "Hennur",
    "latitude": "13.0258087",
    "longitude": 77.6305067
  },
  {
    "name": "Hongasandra Bangalore",
    "latitude": "12.8974892",
    "longitude": 77.6250869
  },
  {
    "name": "Hoodi",
    "latitude": "12.9919033",
    "longitude": 77.7162015
  },
  {
    "name": "Horamavu",
    "latitude": "13.0273312",
    "longitude": 77.6601508
  },
  {
    "name": "Hosa Road",
    "latitude": "12.8701932",
    "longitude": 77.65358
  },
  {
    "name": "Hosahalli",
    "latitude": "13.3500993",
    "longitude": 77.7429078
  },
  {
    "name": "Hosakerehalli",
    "latitude": "12.9301881",
    "longitude": 77.5378332
  },
  {
    "name": "Hoskote",
    "latitude": "13.073014",
    "longitude": 77.7921381
  },
  {
    "name": "Hsr Layout",
    "latitude": "12.9116225",
    "longitude": 77.6388622
  },
  {
    "name": "Hulimavu",
    "latitude": "12.8773486",
    "longitude": 77.6028031
  },
  {
    "name": "Huskuru",
    "latitude": "13.1237336",
    "longitude": 77.4305997
  },
  {
    "name": "Indira Nagar",
    "latitude": "12.9732913",
    "longitude": 77.6404672
  },
  {
    "name": "Itpl",
    "latitude": "12.9845687",
    "longitude": 77.73766474
  },
  {
    "name": "J. P. Nagar",
    "latitude": "12.9096941",
    "longitude": 77.5866067
  },
  {
    "name": "Jakkur",
    "latitude": "13.0784743",
    "longitude": 77.6068938
  },
  {
    "name": "Jalahalli",
    "latitude": "13.0464531",
    "longitude": 77.5483803
  },
  {
    "name": "Jayanagar",
    "latitude": "27.64392675",
    "longitude": 83.0528052
  },
  {
    "name": "Jigani",
    "latitude": "12.7852528",
    "longitude": 77.6380931
  },
  {
    "name": "Jp Nagar Phase 1",
    "latitude": "12.9159404",
    "longitude": 77.5793207
  },
  {
    "name": "Jp Nagar Phase 4",
    "latitude": "12.9159404",
    "longitude": 77.5793207
  },
  {
    "name": "Jp Nagar Phase 5",
    "latitude": "12.9159404",
    "longitude": 77.5793207
  },
  {
    "name": "Jp Nagar Phase 6",
    "latitude": "12.9159404",
    "longitude": 77.5793207
  },
  {
    "name": "Jp Nagar Phase 7",
    "latitude": "12.9155514",
    "longitude": 77.5774308
  },
  {
    "name": "Jp Nagar Phase 8",
    "latitude": "12.9159404",
    "longitude": 77.5793207
  },
  {
    "name": "Jp Nagar Phase 9",
    "latitude": "12.9159404",
    "longitude": 77.5793207
  },
  {
    "name": "Junnasandra",
    "latitude": "12.9106362",
    "longitude": 77.6844696
  },
  {
    "name": "K Channasandra",
    "latitude": "13.040022",
    "longitude": 77.6796248
  },
  {
    "name": "Kadugodi",
    "latitude": "12.9985767",
    "longitude": 77.7609716
  },
  {
    "name": "Kaggadasapura",
    "latitude": "12.9846713",
    "longitude": 77.6790908
  },
  {
    "name": "Kalkere",
    "latitude": "13.6973466",
    "longitude": 76.1517475
  },
  {
    "name": "Kalyan Nagar",
    "latitude": "13.0221416",
    "longitude": 77.6403368
  },
  {
    "name": "Kammanahalli",
    "latitude": "13.0093455",
    "longitude": 77.6377094
  },
  {
    "name": "Kanakapura",
    "latitude": "12.5450268",
    "longitude": 77.4199095
  },
  {
    "name": "Kannamangala",
    "latitude": "13.2151923",
    "longitude": 77.6667197
  },
  {
    "name": "Kasavanahalli",
    "latitude": "13.2414761",
    "longitude": 77.5675665
  },
  {
    "name": "Kasturi Nagar",
    "latitude": "13.0044979",
    "longitude": 77.6603231
  },
  {
    "name": "Kengeri",
    "latitude": "12.9176571",
    "longitude": 77.4837568
  },
  {
    "name": "Kengeri Satellite Town",
    "latitude": "12.9229728",
    "longitude": 77.4842926
  },
  {
    "name": "Kodigehalli",
    "latitude": "13.0601125",
    "longitude": 77.5767725
  },
  {
    "name": "Kogilu",
    "latitude": "13.104198",
    "longitude": 77.6170849
  },
  {
    "name": "Konanakunte",
    "latitude": "12.8792861",
    "longitude": 77.5697529
  },
  {
    "name": "Koramangala",
    "latitude": "12.9340114",
    "longitude": 77.6222304
  },
  {
    "name": "Krishnarajapura",
    "latitude": "12.0325216",
    "longitude": 76.8056333
  },
  {
    "name": "Kudlu",
    "latitude": "12.8889126",
    "longitude": 77.6555716
  },
  {
    "name": "Kudlu Gate",
    "latitude": "12.8895775",
    "longitude": 77.6394582
  },
  {
    "name": "Kumaraswamy Layout",
    "latitude": "12.9081487",
    "longitude": 77.5553179
  },
  {
    "name": "Lal Bahadur Shastri Nagar",
    "latitude": "12.9678103",
    "longitude": 77.6715478
  },
  {
    "name": "Lalbagh Road",
    "latitude": "12.9552217",
    "longitude": 77.5856608
  },
  {
    "name": "Mahadevapura",
    "latitude": "12.9934976",
    "longitude": 77.6924156
  },
  {
    "name": "Mallathahalli",
    "latitude": "12.9623214",
    "longitude": 77.5057232
  },
  {
    "name": "Malleswaram",
    "latitude": "13.0027353",
    "longitude": 77.5703253
  },
  {
    "name": "Marathahalli",
    "latitude": "12.9552572",
    "longitude": 77.6984163
  },
  {
    "name": "Marsur",
    "latitude": "12.33272",
    "longitude": 76.6564
  },
  {
    "name": "Medahalli",
    "latitude": "13.0278454",
    "longitude": 77.7206079
  },
  {
    "name": "Nagarbhavi",
    "latitude": "13.00196975",
    "longitude": 77.52883895
  },
  {
    "name": "Nagawara",
    "latitude": "13.2227",
    "longitude": 78.5541977
  },
  {
    "name": "Narayanaghatta",
    "latitude": "12.8364852",
    "longitude": 77.7260023
  },
  {
    "name": "Nayandahalli",
    "latitude": "12.9413253",
    "longitude": 77.5212118
  },
  {
    "name": "Nelamangala",
    "latitude": "13.0953024",
    "longitude": 77.3963586
  },
  {
    "name": "Nri Layout",
    "latitude": "12.9608946",
    "longitude": 79.1452875
  },
  {
    "name": "Padmanabha Nagar",
    "latitude": "12.916279",
    "longitude": 77.5560752
  },
  {
    "name": "Padmanabhanagar",
    "latitude": "12.91814255",
    "longitude": 77.5576711
  },
  {
    "name": "Panathur",
    "latitude": "12.4571904",
    "longitude": 75.3557324
  },
  {
    "name": "R T  Nagar",
    "latitude": "13.0251833",
    "longitude": 77.5920609
  },
  {
    "name": "Rajajinagar",
    "latitude": "12.9882338",
    "longitude": 77.554883
  },
  {
    "name": "Ramagondanahalli",
    "latitude": "13.1196469",
    "longitude": 77.5586193
  },
  {
    "name": "Ramamurthy Nagar",
    "latitude": "13.0120218",
    "longitude": 77.6777817
  },
  {
    "name": "Rampura",
    "latitude": "21.0328167",
    "longitude": 77.38325343
  },
  {
    "name": "Rayasandra",
    "latitude": "12.9991538",
    "longitude": 78.3987029
  },
  {
    "name": "Richmond Town",
    "latitude": "12.9626925",
    "longitude": 77.6041603
  },
  {
    "name": "Rmv",
    "latitude": "13.041",
    "longitude": 77.5788
  },
  {
    "name": "Rr Nagar",
    "latitude": "12.9149",
    "longitude": 77.5206
  },
  {
    "name": "Sahakar Nagar",
    "latitude": "13.0623",
    "longitude": 77.5871
  },
  {
    "name": "Sai Baba Ashram",
    "latitude": "12.9977",
    "longitude": 77.759
  },
  {
    "name": "Sanjaynagar",
    "latitude": "20.8007519",
    "longitude": 80.1522267
  },
  {
    "name": "Sarjapur",
    "latitude": "18.0323418",
    "longitude": 75.8338487
  },
  {
    "name": "Shivaji Nagar",
    "latitude": "25.88455445",
    "longitude": 86.03985031
  },
  {
    "name": "Sidedahalli",
    "latitude": "13.0625424",
    "longitude": 77.4953754
  },
  {
    "name": "Singasandra",
    "latitude": "12.8810223",
    "longitude": 77.6490068
  },
  {
    "name": "Sir M V Nagar",
    "latitude": "12.96832115",
    "longitude": 77.48192037
  },
  {
    "name": "Sompura",
    "latitude": "15.4422603",
    "longitude": 75.892662
  },
  {
    "name": "Subramanyapura",
    "latitude": "12.8963963",
    "longitude": 77.5377864
  },
  {
    "name": "Sudhama Nagar",
    "latitude": "12.9627471",
    "longitude": 77.6610345
  },
  {
    "name": "Thanisandra",
    "latitude": "13.054713",
    "longitude": 77.6339258
  },
  {
    "name": "Thirupalya",
    "latitude": "12.8172898",
    "longitude": 77.6695324
  },
  {
    "name": "Ulsoor",
    "latitude": "12.9778793",
    "longitude": 77.6246697
  },
  {
    "name": "Uttarahalli",
    "latitude": "12.9055682",
    "longitude": 77.5455438
  },
  {
    "name": "Vajarahalli",
    "latitude": "13.9818626",
    "longitude": 76.8686607
  },
  {
    "name": "Varanasi",
    "latitude": "25.3356491",
    "longitude": 83.0076292
  },
  {
    "name": "Varthur",
    "latitude": "12.9406152",
    "longitude": 77.7469937
  },
  {
    "name": "Vasanth Nagar",
    "latitude": "12.98872125",
    "longitude": 77.58516878
  },
  {
    "name": "Vibhutipura",
    "latitude": "13.1387986",
    "longitude": 78.1186402
  },
  {
    "name": "Vidyaranyapura",
    "latitude": "13.0766407",
    "longitude": 77.5577315
  },
  {
    "name": "Vijayanagar",
    "latitude": "12.9756",
    "longitude": 77.5354
  },
  {
    "name": "Virupakshapura",
    "latitude": "12.3894502",
    "longitude": 75.9036413
  },
  {
    "name": "Whitefield",
    "latitude": "12.9698",
    "longitude": 77.75
  },
  {
    "name": "Wilson Garden",
    "latitude": "12.9489339",
    "longitude": 77.5968273
  },
  {
    "name": "Yelahanka",
    "latitude": "13.1006982",
    "longitude": 77.5963454
  },
  {
    "name": "Yelahanka New Town",
    "latitude": "13.0978039",
    "longitude": 77.5811889
  },
  {
    "name": "Yeshwantpur",
    "latitude": "13.02383",
    "longitude": 77.5529215
  },
  {
    "name": "Anagalapura Near Hennur Main Road",
    "latitude": "13.0704151352773 ",
    "longitude": 77.68517255
  },
  {
    "name": "Avalahalli Off Sarjapur Road",
    "latitude": "13.1364175 ",
    "longitude": 77.5645189
  },
  {
    "name": "Bagaluru Near Yelahanka",
    "latitude": "12.9716",
    "longitude": 77.5946
  },
  {
    "name": "Basaveswarnagar",
    "latitude": "12.9716",
    "longitude": 77.5946
  },
  {
    "name": "Battarahalli",
    "latitude": "12.9716",
    "longitude": 77.5946
  },
  {
    "name": "Bedarahalli",
    "latitude": "12.9716",
    "longitude": 77.5946
  },
  {
    "name": "Chandra Layout Extension",
    "latitude": "12.9716",
    "longitude": 77.5946
  },
  {
    "name": "Chikkagubbi On Hennur Main Road",
    "latitude": "12.9716",
    "longitude": 77.5946
  },
  {
    "name": "Chikkanayakanahalli At Off Sarjapur",
    "latitude": "12.9716",
    "longitude": 77.5946
  },
  {
    "name": "Dasarahalli On Tumkur Road",
    "latitude": "12.9716",
    "longitude": 77.5946
  },
  {
    "name": "Gb Palya",
    "latitude": "12.9716",
    "longitude": 77.5946
  },
  {
    "name": "Hallehalli",
    "latitude": "12.9716",
    "longitude": 77.5946
  },
  {
    "name": "Jagajeevan Ram Nagar",
    "latitude": "12.9716",
    "longitude": 77.5946
  },
  {
    "name": "Jnana Ganga Nagar",
    "latitude": "12.9716",
    "longitude": 77.5946
  },
  {
    "name": "Kammmanhalli",
    "latitude": "12.9716",
    "longitude": 77.5946
  },
  {
    "name": "Kanakapura Road Beyond Nice Ring Road",
    "latitude": "12.9716",
    "longitude": 77.5946
  },
  {
    "name": "Kannur On Thanisandra Main Road",
    "latitude": "12.9716",
    "longitude": 77.5946
  },
  {
    "name": "Kodalagurki",
    "latitude": "12.9716",
    "longitude": 77.5946
  },
  {
    "name": "Kodihalli On Old Airport Road",
    "latitude": "12.9716",
    "longitude": 77.5946
  },
  {
    "name": "Kumbalgodu",
    "latitude": "12.9716",
    "longitude": 77.5946
  },
  {
    "name": "Kuvempu Layout On Hennur Main Road",
    "latitude": "12.9716",
    "longitude": 77.5946
  },
  {
    "name": "Margondanahalli",
    "latitude": "12.9716",
    "longitude": 77.5946
  },
  {
    "name": "Munnekollal",
    "latitude": "12.9716",
    "longitude": 77.5946
  },
  {
    "name": "Narayanapura On Hennur Main Road",
    "latitude": "12.9716",
    "longitude": 77.5946
  },
  {
    "name": "Rmv Extension Stage 2",
    "latitude": "12.9716",
    "longitude": 77.5946
  },
  {
    "name": "Sadduguntepalya",
    "latitude": "12.9716",
    "longitude": 77.5946
  },
  {
    "name": "Sannatammanahalli",
    "latitude": "12.9716",
    "longitude": 77.5946
  },
  {
    "name": "Sarjapur Road Post Railway Crossing",
    "latitude": "12.9716",
    "longitude": 77.5946
  },
  {
    "name": "Sarjapur Road Wipro To Railway Crossing",
    "latitude": "12.9716",
    "longitude": 77.5946
  },
  {
    "name": "Talaghattapura",
    "latitude": "12.9716",
    "longitude": 77.5946
  },
  {
    "name": "Ullal Uppanagar",
    "latitude": "12.9716",
    "longitude": 77.5946
  },
  {
    "name": "Uttarahalli Hobli",
    "latitude": "12.9716",
    "longitude": 77.5946
  },
  {
    "name": "Volagerekallahalli",
    "latitude": "12.9716",
    "longitude": 77.5946
  },
  {
    "name": "Whitefield Hope Farm Junction",
    "latitude": "12.9716",
    "longitude": 77.5946
  },
  {
    "name": "Arera Colony",
    "latitude": "23.2208721",
    "longitude": 77.4293649
  },
  {
    "name": "Awadhpuri",
    "latitude": "23.230229",
    "longitude": 77.4866612
  },
  {
    "name": "Ayodhya Bypass",
    "latitude": "23.2553971",
    "longitude": 77.4785168
  },
  {
    "name": "Ayodhya Nagar",
    "latitude": "23.2748329 ",
    "longitude": 77.4672339
  },
  {
    "name": "Bhel",
    "latitude": "23.2446",
    "longitude": 77.473
  },
  {
    "name": "Chuna Bhatti",
    "latitude": "23.20390075",
    "longitude": 77.41539328
  },
  {
    "name": "Gandhinagar",
    "latitude": "23.2232877",
    "longitude": 72.6492267
  },
  {
    "name": "Govindpura",
    "latitude": "24.3623051",
    "longitude": 77.1324563
  },
  {
    "name": "Gulmohar Colony",
    "latitude": "23.1844",
    "longitude": 77.4379
  },
  {
    "name": "Hoshangabad Road",
    "latitude": "23.1876646",
    "longitude": 77.4529413
  },
  {
    "name": "Jahangirabad",
    "latitude": "28.4033531",
    "longitude": 78.1049538
  },
  {
    "name": "Kolar Road",
    "latitude": "23.1737805",
    "longitude": 77.4173378
  },
  {
    "name": "Lalghati",
    "latitude": "23.27298265",
    "longitude": 77.36988115
  },
  {
    "name": "Malviya Nagar",
    "latitude": "28.5339201",
    "longitude": 77.2124474
  },
  {
    "name": "Misrod",
    "latitude": "23.1684964",
    "longitude": 77.4586234
  },
  {
    "name": "Patel Nagar",
    "latitude": "28.6450527",
    "longitude": 77.1693179
  },
  {
    "name": "Saket Nagar",
    "latitude": "23.2152945",
    "longitude": 77.4600732
  },
  {
    "name": "Salaiya",
    "latitude": "24.0992117",
    "longitude": 80.7743941
  },
  {
    "name": "Shahpura",
    "latitude": "25.625258",
    "longitude": 74.9274576
  },
  {
    "name": "Bagmugalia",
    "latitude": "23.1903",
    "longitude": 77.4849
  },
  {
    "name": "Bawaria Kalan",
    "latitude": "23.178",
    "longitude": 77.4481
  },
  {
    "name": "Jatkhedi",
    "latitude": "23.1739",
    "longitude": 77.4788
  },
  {
    "name": "Kovalam",
    "latitude": "8.4004698",
    "longitude": 76.9788156
  },
  {
    "name": "Muttukadu",
    "latitude": "10.0118593",
    "longitude": 77.1423532
  },
  {
    "name": "Adhanur",
    "latitude": "10.1831969",
    "longitude": 78.7496138
  },
  {
    "name": "Mangadu",
    "latitude": "10.3228991",
    "longitude": 79.0874004
  },
  {
    "name": "Kamaraj Nagar",
    "latitude": "10.91953",
    "longitude": 79.25022
  },
  {
    "name": "Abiramapuram",
    "latitude": "11.1470637",
    "longitude": 79.5347975
  },
  {
    "name": "K K Nagar",
    "latitude": "11.3106569",
    "longitude": 77.7050969
  },
  {
    "name": "Navallur",
    "latitude": "11.72820885",
    "longitude": 75.57197828
  },
  {
    "name": "Perumbakkam",
    "latitude": "12.2202453",
    "longitude": 78.9945343
  },
  {
    "name": "Chetpet",
    "latitude": "12.508649",
    "longitude": 79.31449862
  },
  {
    "name": "Vengambakkam",
    "latitude": "12.5489411",
    "longitude": 80.1423341
  },
  {
    "name": "Chengalpattu",
    "latitude": "12.6840886",
    "longitude": 79.9836371
  },
  {
    "name": "Sembakkam",
    "latitude": "12.7023624",
    "longitude": 80.1298612
  },
  {
    "name": "Thiruporur",
    "latitude": "12.7258558",
    "longitude": 80.189518
  },
  {
    "name": "Kalavakkam",
    "latitude": "12.7453188",
    "longitude": 80.1950454
  },
  {
    "name": "Singaperumal Koil",
    "latitude": "12.7612035",
    "longitude": 80.0040713
  },
  {
    "name": "Thaiyur",
    "latitude": "12.7725208",
    "longitude": 80.2084142
  },
  {
    "name": "Kelambakkam",
    "latitude": "12.7871437",
    "longitude": 80.219987
  },
  {
    "name": "Maraimalai Nagar",
    "latitude": "12.7958223",
    "longitude": 80.0269097
  },
  {
    "name": "Padur",
    "latitude": "12.8052162",
    "longitude": 80.2240356
  },
  {
    "name": "Pudupakkam",
    "latitude": "12.8097932",
    "longitude": 80.2035385
  },
  {
    "name": "Potheri",
    "latitude": "12.8207567",
    "longitude": 80.0368745
  },
  {
    "name": "Siruseri",
    "latitude": "12.8235752",
    "longitude": 80.2221501
  },
  {
    "name": "Egatoor",
    "latitude": "12.8330267",
    "longitude": 80.228884
  },
  {
    "name": "Kolapakkam Vandalur",
    "latitude": "12.8387767",
    "longitude": 80.1543872
  },
  {
    "name": "Vandalur Kelambakkam Road",
    "latitude": "12.8387767",
    "longitude": 80.1543872
  },
  {
    "name": "Thalambur",
    "latitude": "12.842032",
    "longitude": 80.2231302
  },
  {
    "name": "Guduvancheri",
    "latitude": "12.8439952",
    "longitude": 80.0608336
  },
  {
    "name": "Kandigai",
    "latitude": "12.8495031",
    "longitude": 80.1402727
  },
  {
    "name": "Ponmar",
    "latitude": "12.8574825",
    "longitude": 80.1719383
  },
  {
    "name": "Rathinamangalam",
    "latitude": "12.8585268",
    "longitude": 80.1316425
  },
  {
    "name": "Nallambakkam",
    "latitude": "12.8600513",
    "longitude": 80.0721602
  },
  {
    "name": "Urapakkam",
    "latitude": "12.8636676",
    "longitude": 80.0721616
  },
  {
    "name": "Uthandi",
    "latitude": "12.8687677",
    "longitude": 80.247209
  },
  {
    "name": "Semmancheri",
    "latitude": "12.8751861",
    "longitude": 80.2106332
  },
  {
    "name": "Agaramthen",
    "latitude": "12.8909567",
    "longitude": 80.1408201
  },
  {
    "name": "Vandalur",
    "latitude": "12.8916061",
    "longitude": 80.084974
  },
  {
    "name": "Sithalapakkam",
    "latitude": "12.8917047",
    "longitude": 80.1851133
  },
  {
    "name": "Karasangal",
    "latitude": "12.896871",
    "longitude": 80.0440183
  },
  {
    "name": "Vengaivasal",
    "latitude": "12.9000243",
    "longitude": 80.1715639
  },
  {
    "name": "Madambakkam",
    "latitude": "12.9057186",
    "longitude": 80.1543859
  },
  {
    "name": "Karapakkam",
    "latitude": "12.9117073",
    "longitude": 80.2277203
  },
  {
    "name": "Perungalathur",
    "latitude": "12.9145454",
    "longitude": 80.0879549
  },
  {
    "name": "Rajakilpakkam",
    "latitude": "12.9145851",
    "longitude": 80.1579056
  },
  {
    "name": "Manimangalam",
    "latitude": "12.916831",
    "longitude": 80.0412449
  },
  {
    "name": "Sholinganallur",
    "latitude": "12.9174426",
    "longitude": 80.21649018
  },
  {
    "name": "Selaiyur",
    "latitude": "12.9187445",
    "longitude": 80.1311172
  },
  {
    "name": "Injambakkam",
    "latitude": "12.9189367",
    "longitude": 80.251295
  },
  {
    "name": "Sriperumbudur",
    "latitude": "12.9201301",
    "longitude": 79.93910564
  },
  {
    "name": "Gowrivakkam",
    "latitude": "12.9209495",
    "longitude": 80.1679764
  },
  {
    "name": "Medavakkam",
    "latitude": "12.9229928",
    "longitude": 80.1882897
  },
  {
    "name": "Tambaram West",
    "latitude": "12.9257923",
    "longitude": 80.1179194
  },
  {
    "name": "West Tambaram",
    "latitude": "12.9257923",
    "longitude": 80.1179194
  },
  {
    "name": "East Tambaram",
    "latitude": "12.9265148",
    "longitude": 80.1314526
  },
  {
    "name": "Pallikaranai",
    "latitude": "12.9304748",
    "longitude": 80.2077692
  },
  {
    "name": "Chitlapakkam",
    "latitude": "12.9330984",
    "longitude": 80.1413832
  },
  {
    "name": "Nanmangalam",
    "latitude": "12.9382161",
    "longitude": 80.1782483
  },
  {
    "name": "Kovilambakkam",
    "latitude": "12.9392427",
    "longitude": 80.1825888
  },
  {
    "name": "Tambaram East",
    "latitude": "12.94505",
    "longitude": 80.13456
  },
  {
    "name": "Neelankarai",
    "latitude": "12.9454955",
    "longitude": 80.2574692
  },
  {
    "name": "Sunnambu Kolathur S Kolathur",
    "latitude": "12.9485037",
    "longitude": 80.1989335
  },
  {
    "name": "Chromepet",
    "latitude": "12.9521897",
    "longitude": 80.1411677
  },
  {
    "name": "Thoraipakkam Omr",
    "latitude": "12.9532329",
    "longitude": 80.2334136
  },
  {
    "name": "Thoraipakkam",
    "latitude": "12.9536397",
    "longitude": 80.1628158
  },
  {
    "name": "Keelkattalai",
    "latitude": "12.9548473",
    "longitude": 80.1852685
  },
  {
    "name": "Palavakkam",
    "latitude": "12.95999",
    "longitude": 80.2560268
  },
  {
    "name": "Madipakkam",
    "latitude": "12.9611348",
    "longitude": 80.2001292
  },
  {
    "name": "Old Pallavaram",
    "latitude": "12.9633042",
    "longitude": 80.1665389
  },
  {
    "name": "Thirumudivakkam",
    "latitude": "12.9646786",
    "longitude": 80.0817377
  },
  {
    "name": "Kotivakkam",
    "latitude": "12.96954",
    "longitude": 80.2575889
  },
  {
    "name": "Kottivakkam",
    "latitude": "12.9705053",
    "longitude": 80.2615033
  },
  {
    "name": "Perungudi",
    "latitude": "12.9710239",
    "longitude": 80.2418051
  },
  {
    "name": "Thiruneermalai",
    "latitude": "12.9726501",
    "longitude": 80.124091
  },
  {
    "name": "Pammal",
    "latitude": "12.9737938",
    "longitude": 80.1408
  },
  {
    "name": "Nanganallur",
    "latitude": "12.9801242",
    "longitude": 80.184902
  },
  {
    "name": "Velachery",
    "latitude": "12.98016545",
    "longitude": 80.22285056
  },
  {
    "name": "Anakaputhur",
    "latitude": "12.9806162",
    "longitude": 80.1297551
  },
  {
    "name": "Thiruvanmiyur",
    "latitude": "12.9858948",
    "longitude": 80.2644215
  },
  {
    "name": "Pallavaram",
    "latitude": "12.9898157",
    "longitude": 80.10098654
  },
  {
    "name": "Pozhichalur",
    "latitude": "12.9905297",
    "longitude": 80.1440498
  },
  {
    "name": "Kundrathur",
    "latitude": "12.9957704",
    "longitude": 80.0973114
  },
  {
    "name": "Besant Nagar",
    "latitude": "12.9996907",
    "longitude": 80.2682259
  },
  {
    "name": "Gerugambakkam",
    "latitude": "13.001751",
    "longitude": 80.1375408
  },
  {
    "name": "Alandur",
    "latitude": "13.00282155",
    "longitude": 80.1719186
  },
  {
    "name": "Guindy",
    "latitude": "13.0043766",
    "longitude": 80.23654999
  },
  {
    "name": "Adyar",
    "latitude": "13.00645",
    "longitude": 80.2577791
  },
  {
    "name": "Kolapakkam",
    "latitude": "13.0097074",
    "longitude": 80.1528994
  },
  {
    "name": "Manapakkam",
    "latitude": "13.0147531",
    "longitude": 80.1744935
  },
  {
    "name": "Nandambakkam",
    "latitude": "13.0166484",
    "longitude": 80.1911885
  },
  {
    "name": "Kotturpuram",
    "latitude": "13.0193703",
    "longitude": 80.2435512
  },
  {
    "name": "Mugalivakkam",
    "latitude": "13.0205798",
    "longitude": 80.1685163
  },
  {
    "name": "Saidapet",
    "latitude": "13.020817",
    "longitude": 80.2239536
  },
  {
    "name": "Moulivakkam",
    "latitude": "13.0222692",
    "longitude": 80.1413929
  },
  {
    "name": "Raja Annamalai Puram",
    "latitude": "13.0244783",
    "longitude": 80.253937
  },
  {
    "name": "Mevalurkuppam",
    "latitude": "13.0280202",
    "longitude": 80.007207
  },
  {
    "name": "Nandanam",
    "latitude": "13.0286286",
    "longitude": 80.240256
  },
  {
    "name": "Mylapore",
    "latitude": "13.0316473",
    "longitude": 80.2700166
  },
  {
    "name": "Porur",
    "latitude": "13.0320131",
    "longitude": 80.158304
  },
  {
    "name": "Alwarpet",
    "latitude": "13.0338602",
    "longitude": 80.2545491
  },
  {
    "name": "Kattupakkam",
    "latitude": "13.0400552",
    "longitude": 80.1243027
  },
  {
    "name": "Valasaravakkam",
    "latitude": "13.0410164",
    "longitude": 80.1721682
  },
  {
    "name": "West Mambalam",
    "latitude": "13.0427322",
    "longitude": 80.2270781
  },
  {
    "name": "Teynampet",
    "latitude": "13.0443237",
    "longitude": 80.2498455
  },
  {
    "name": "Kumananchavadi",
    "latitude": "13.0456249",
    "longitude": 80.1153909
  },
  {
    "name": "Virugambakkam",
    "latitude": "13.0475434",
    "longitude": 80.1922181
  },
  {
    "name": "Kodambakkam",
    "latitude": "13.049207",
    "longitude": 80.2242829
  },
  {
    "name": "Vadapalani",
    "latitude": "13.0509304",
    "longitude": 80.2120661
  },
  {
    "name": "T Nagar",
    "latitude": "13.05279",
    "longitude": 80.23769
  },
  {
    "name": "Thirumazhisai",
    "latitude": "13.0540139",
    "longitude": 80.0607568
  },
  {
    "name": "Royapettah",
    "latitude": "13.0554718",
    "longitude": 80.2639706
  },
  {
    "name": "Saligramam",
    "latitude": "13.0583406",
    "longitude": 80.1985327
  },
  {
    "name": "Maduravoyal",
    "latitude": "13.0601732",
    "longitude": 80.1665988
  },
  {
    "name": "Triplicane",
    "latitude": "13.0604285",
    "longitude": 80.2750704
  },
  {
    "name": "Vanagaram",
    "latitude": "13.0604406",
    "longitude": 80.1533447
  },
  {
    "name": "Nungambakkam",
    "latitude": "13.0620626",
    "longitude": 80.240487
  },
  {
    "name": "Choolaimedu",
    "latitude": "13.0623344",
    "longitude": 80.2254012
  },
  {
    "name": "Aminjikarai",
    "latitude": "13.0721399",
    "longitude": 80.2205453
  },
  {
    "name": "Thiruverkadu",
    "latitude": "13.0727699",
    "longitude": 80.1204591
  },
  {
    "name": "Egmore",
    "latitude": "13.0728321",
    "longitude": 80.2576906
  },
  {
    "name": "Koyambedu",
    "latitude": "13.0734496",
    "longitude": 80.1948363
  },
  {
    "name": "Arumbakkam",
    "latitude": "13.074371",
    "longitude": 80.2081312
  },
  {
    "name": "Ayanambakkam",
    "latitude": "13.0748878",
    "longitude": 80.1549921
  },
  {
    "name": "Poonamallee",
    "latitude": "13.0768552",
    "longitude": 80.05106225
  },
  {
    "name": "Camp",
    "latitude": "13.0827",
    "longitude": 80.2707
  },
  {
    "name": "Adambakam",
    "latitude": "13.0827",
    "longitude": 80.2707
  },
  {
    "name": "Anna Nagar West Extension",
    "latitude": "13.0827",
    "longitude": 80.2707
  },
  {
    "name": "Annanagar West",
    "latitude": "13.0827",
    "longitude": 80.2707
  },
  {
    "name": "Ekkatuthangal",
    "latitude": "13.0827",
    "longitude": 80.2707
  },
  {
    "name": "Iyappanthangal",
    "latitude": "13.0827",
    "longitude": 80.2707
  },
  {
    "name": "Iyyappanthangal",
    "latitude": "13.0827",
    "longitude": 80.2707
  },
  {
    "name": "Kanathur Reddikuppam",
    "latitude": "13.0827",
    "longitude": 80.2707
  },
  {
    "name": "Kannathur Reddy Kuppam",
    "latitude": "13.0827",
    "longitude": 80.2707
  },
  {
    "name": "Kattankulathur",
    "latitude": "13.0827",
    "longitude": 80.2707
  },
  {
    "name": "Kil Ayanambakkam",
    "latitude": "13.0827",
    "longitude": 80.2707
  },
  {
    "name": "Kilkattalai",
    "latitude": "13.0827",
    "longitude": 80.2707
  },
  {
    "name": "Madhanandapuram",
    "latitude": "13.0827",
    "longitude": 80.2707
  },
  {
    "name": "Mambakam",
    "latitude": "13.0827",
    "longitude": 80.2707
  },
  {
    "name": "Mannivakkam",
    "latitude": "13.0827",
    "longitude": 80.2707
  },
  {
    "name": "Moolacheri",
    "latitude": "13.0827",
    "longitude": 80.2707
  },
  {
    "name": "Nedunkundram",
    "latitude": "13.0827",
    "longitude": 80.2707
  },
  {
    "name": "Oragadam Industrial Corridor",
    "latitude": "13.0827",
    "longitude": 80.2707
  },
  {
    "name": "Ottiyabakkam",
    "latitude": "13.0827",
    "longitude": 80.2707
  },
  {
    "name": "Ottiyambakkam",
    "latitude": "13.0827",
    "longitude": 80.2707
  },
  {
    "name": "Padapai",
    "latitude": "13.0827",
    "longitude": 80.2707
  },
  {
    "name": "Peerakankaranai",
    "latitude": "13.0827",
    "longitude": 80.2707
  },
  {
    "name": "Ponniammanmedu",
    "latitude": "13.0827",
    "longitude": 80.2707
  },
  {
    "name": "Surapet",
    "latitude": "13.0827",
    "longitude": 80.2707
  },
  {
    "name": "Tambaram Sanatoruim",
    "latitude": "13.0827",
    "longitude": 80.2707
  },
  {
    "name": "Thirunindravur",
    "latitude": "13.0827",
    "longitude": 80.2707
  },
  {
    "name": "Thiruthavali",
    "latitude": "13.0827",
    "longitude": 80.2707
  },
  {
    "name": "Tiruporur Near Kelambakkam",
    "latitude": "13.0827",
    "longitude": 80.2707
  },
  {
    "name": "Velappanchavadi",
    "latitude": "13.0827",
    "longitude": 80.2707
  },
  {
    "name": "Kilpauk",
    "latitude": "13.0832149",
    "longitude": 80.2379864
  },
  {
    "name": "Mogappair",
    "latitude": "13.0835142",
    "longitude": 80.1840779
  },
  {
    "name": "Mogappair East",
    "latitude": "13.0835142",
    "longitude": 80.1840779
  },
  {
    "name": "Anna Nagar East",
    "latitude": "13.0845523",
    "longitude": 80.2196163
  },
  {
    "name": "Anna Nagar",
    "latitude": "13.0872004",
    "longitude": 80.2164421
  },
  {
    "name": "Ambattur Industrial Estate",
    "latitude": "13.0922855",
    "longitude": 80.1675492
  },
  {
    "name": "Ayanavaram",
    "latitude": "13.0946157",
    "longitude": 80.23541
  },
  {
    "name": "Ayapakkam",
    "latitude": "13.1032642",
    "longitude": 80.132508
  },
  {
    "name": "Padi",
    "latitude": "13.1035851",
    "longitude": 80.1920425
  },
  {
    "name": "Korattur",
    "latitude": "13.1115392",
    "longitude": 80.1842767
  },
  {
    "name": "Perambur",
    "latitude": "13.1121242",
    "longitude": 80.245022
  },
  {
    "name": "Villivakkam",
    "latitude": "13.1125875",
    "longitude": 80.2081378
  },
  {
    "name": "Ambattur",
    "latitude": "13.1128863",
    "longitude": 80.15986241
  },
  {
    "name": "Thirumullaivoyal",
    "latitude": "13.1152512",
    "longitude": 80.1382237
  },
  {
    "name": "Thiruninravur",
    "latitude": "13.11573",
    "longitude": 80.026717
  },
  {
    "name": "Pattabiram",
    "latitude": "13.1186572",
    "longitude": 80.0649854
  },
  {
    "name": "Avadi",
    "latitude": "13.1194809",
    "longitude": 80.1026704
  },
  {
    "name": "Veppampattu",
    "latitude": "13.1235994",
    "longitude": 79.9984223
  },
  {
    "name": "Kolathur",
    "latitude": "13.1241127",
    "longitude": 80.2046276
  },
  {
    "name": "Nemilicheri",
    "latitude": "13.1256971",
    "longitude": 80.0506578
  },
  {
    "name": "Oragadam",
    "latitude": "13.130791",
    "longitude": 80.1529145
  },
  {
    "name": "Kodungaiyur West",
    "latitude": "13.1355089",
    "longitude": 80.2468151
  },
  {
    "name": "Tiruvallur",
    "latitude": "13.1394221",
    "longitude": 79.9070839
  },
  {
    "name": "Madhavaram",
    "latitude": "13.1429313",
    "longitude": 80.2325166
  },
  {
    "name": "Tiruvottiyur",
    "latitude": "13.1563873",
    "longitude": 80.3005279
  },
  {
    "name": "Puzhal",
    "latitude": "13.1636492",
    "longitude": 80.2038067
  },
  {
    "name": "Vadaperumbakkam",
    "latitude": "13.1757143",
    "longitude": 80.2187732
  },
  {
    "name": "Veerapuram",
    "latitude": "13.1864165",
    "longitude": 80.0824863
  },
  {
    "name": "Padianallur",
    "latitude": "13.2032865",
    "longitude": 80.1730356
  },
  {
    "name": "Thamaraipakkam",
    "latitude": "13.2200491",
    "longitude": 80.0321236
  },
  {
    "name": "Ramapuram",
    "latitude": "14.2012997",
    "longitude": 78.77085116
  },
  {
    "name": "Kovur",
    "latitude": "14.5196139",
    "longitude": 79.98609721
  },
  {
    "name": "Thirumalpur",
    "latitude": "17.0211089",
    "longitude": 77.9000951
  },
  {
    "name": "Gopalapuram",
    "latitude": "17.1340648",
    "longitude": 81.53082657
  },
  {
    "name": "Hastinapuram",
    "latitude": "17.3291354",
    "longitude": 78.5542145
  },
  {
    "name": "Ramavaram",
    "latitude": "18.6260898",
    "longitude": 83.3504278
  },
  {
    "name": "Mahindra World City",
    "latitude": "12.7248",
    "longitude": 80.0038
  },
  {
    "name": "Aman Vihar",
    "latitude": "30.3552767",
    "longitude": 78.0780299
  },
  {
    "name": "Bahmanwala",
    "latitude": "30.2932299",
    "longitude": 78.0199003
  },
  {
    "name": "Balawala",
    "latitude": "30.2661801",
    "longitude": 78.1062092
  },
  {
    "name": "Banjarawala",
    "latitude": "30.2781757",
    "longitude": 78.02788
  },
  {
    "name": "Chandrabani",
    "latitude": "30.2830292",
    "longitude": 77.9724374
  },
  {
    "name": "Chironwali",
    "latitude": "30.3403228",
    "longitude": 78.0628054
  },
  {
    "name": "Clement Town",
    "latitude": "30.2685607",
    "longitude": 78.0071039
  },
  {
    "name": "Defence Colony",
    "latitude": "30.2793166",
    "longitude": 78.0552079
  },
  {
    "name": "Gms Road",
    "latitude": "30.310005",
    "longitude": 78.0078262
  },
  {
    "name": "Govind Vihar",
    "latitude": "30.3578779",
    "longitude": 78.0908651
  },
  {
    "name": "Herbertpur",
    "latitude": "30.4382863",
    "longitude": 77.7366242
  },
  {
    "name": "Isbt Turner Road",
    "latitude": "30.2785732",
    "longitude": 78.0031116
  },
  {
    "name": "Jogiwala",
    "latitude": "30.2857815",
    "longitude": 78.0684311
  },
  {
    "name": "Joly Grant",
    "latitude": "30.1941416",
    "longitude": 78.1649938
  },
  {
    "name": "Kulhan",
    "latitude": "30.3790676",
    "longitude": 78.1051246
  },
  {
    "name": "Majra",
    "latitude": "30.2965552",
    "longitude": 77.9965961
  },
  {
    "name": "Malsi",
    "latitude": "30.3803728",
    "longitude": 78.068015
  },
  {
    "name": "Miyawala",
    "latitude": "30.2669664",
    "longitude": 78.0908651
  },
  {
    "name": "Mohabbewala",
    "latitude": "30.2724598",
    "longitude": 77.9810028
  },
  {
    "name": "Mohkampur",
    "latitude": "30.2788086",
    "longitude": 78.0786543
  },
  {
    "name": "Nakronda Road",
    "latitude": "30.2521917",
    "longitude": 78.1035691
  },
  {
    "name": "Nawada",
    "latitude": "30.2694012",
    "longitude": 78.0564035
  },
  {
    "name": "Nehrugram",
    "latitude": "30.2883908",
    "longitude": 78.0902682
  },
  {
    "name": "Pithuwala Kalan",
    "latitude": "30.3007528",
    "longitude": 77.9874264
  },
  {
    "name": "Rajpur",
    "latitude": "30.3847239",
    "longitude": 78.089439
  },
  {
    "name": "Ranipokhri Nagar",
    "latitude": "30.1698354",
    "longitude": 78.1635688
  },
  {
    "name": "Sahastradhara Road",
    "latitude": "30.3549317",
    "longitude": 78.0833181
  },
  {
    "name": "Subhash Nagar",
    "latitude": "30.2777596",
    "longitude": 77.9927285
  },
  {
    "name": "Tunwala",
    "latitude": "30.2783338",
    "longitude": 78.0908651
  },
  {
    "name": "Turner Road",
    "latitude": "30.2785732",
    "longitude": 78.0031116
  },
  {
    "name": "Chattarpur",
    "latitude": "28.4958562",
    "longitude": 77.1848254
  },
  {
    "name": "Ghitorni",
    "latitude": "28.4964413",
    "longitude": 77.1393872
  },
  {
    "name": "Sultanpur",
    "latitude": "28.4967184",
    "longitude": 77.1633995
  },
  {
    "name": "Khanpur Deoli",
    "latitude": "28.5019207",
    "longitude": 77.2297379
  },
  {
    "name": "Sainik Farm",
    "latitude": "28.5044051",
    "longitude": 77.2141252
  },
  {
    "name": "Khanpur",
    "latitude": "28.5077037",
    "longitude": 77.2321999
  },
  {
    "name": "Jawahar Park",
    "latitude": "28.5077961",
    "longitude": 77.2311749
  },
  {
    "name": "Freedom Fighter Enclave",
    "latitude": "28.5090004",
    "longitude": 77.1976613
  },
  {
    "name": "Khanpur Krishna Park",
    "latitude": "28.509731",
    "longitude": 77.2337692
  },
  {
    "name": "Duggal Colony",
    "latitude": "28.5105288",
    "longitude": 77.2297379
  },
  {
    "name": "Mehrauli",
    "latitude": "28.5204637",
    "longitude": 77.178666
  },
  {
    "name": "Saket",
    "latitude": "28.5220971",
    "longitude": 77.2101534
  },
  {
    "name": "Vasant Kunj",
    "latitude": "28.5293121",
    "longitude": 77.1484442
  },
  {
    "name": "Geetanjali Enclave",
    "latitude": "28.5308814",
    "longitude": 77.2024306
  },
  {
    "name": "Navjeevan Vihar",
    "latitude": "28.5334761",
    "longitude": 77.1995558
  },
  {
    "name": "Shivalik",
    "latitude": "28.5340242",
    "longitude": 77.2053054
  },
  {
    "name": "Greater Kailash Ii",
    "latitude": "28.53536",
    "longitude": 77.2419522
  },
  {
    "name": "Govindpuri",
    "latitude": "28.5354383",
    "longitude": 77.2639326
  },
  {
    "name": "Greater Kailash 1",
    "latitude": "28.5358654",
    "longitude": 77.2363445
  },
  {
    "name": "Sheikh Sarai",
    "latitude": "28.5363155",
    "longitude": 77.2218338
  },
  {
    "name": "Sarvodaya Enclave",
    "latitude": "28.5372066",
    "longitude": 77.2011857
  },
  {
    "name": "C R Park",
    "latitude": "28.5397842",
    "longitude": 77.2489726
  },
  {
    "name": "Kalkaji",
    "latitude": "28.5399515",
    "longitude": 77.2591579
  },
  {
    "name": "Panchsheel Park",
    "latitude": "28.5415056",
    "longitude": 77.216085
  },
  {
    "name": "Sarvpriya Vihar",
    "latitude": "28.542767",
    "longitude": 77.2067427
  },
  {
    "name": "Jasola",
    "latitude": "28.5439606",
    "longitude": 77.2913795
  },
  {
    "name": "Sector 28 Dwarka",
    "latitude": "28.5441945",
    "longitude": 77.0348573
  },
  {
    "name": "Panchsheel Enclave",
    "latitude": "28.54482",
    "longitude": 77.2283008
  },
  {
    "name": "Hauz Khas",
    "latitude": "28.5478897",
    "longitude": 77.2031247
  },
  {
    "name": "Greater Kailash",
    "latitude": "28.548202",
    "longitude": 77.2380163
  },
  {
    "name": "Jamia Nagar",
    "latitude": "28.5538528",
    "longitude": 77.295553
  },
  {
    "name": "Gulmohar Park",
    "latitude": "28.5572098",
    "longitude": 77.2127891
  },
  {
    "name": "East Of Kailash",
    "latitude": "28.5583464",
    "longitude": 77.2530829
  },
  {
    "name": "Green Park",
    "latitude": "28.5584489",
    "longitude": 77.2029376
  },
  {
    "name": "Niti Bagh",
    "latitude": "28.5595022",
    "longitude": 77.2168036
  },
  {
    "name": "Green Park Extension",
    "latitude": "28.5597033",
    "longitude": 77.203868
  },
  {
    "name": "Uday Park",
    "latitude": "28.5601003",
    "longitude": 77.2193187
  },
  {
    "name": "Vasant Vihar",
    "latitude": "28.560257",
    "longitude": 77.1617358
  },
  {
    "name": "Sector 23 Dwarka",
    "latitude": "28.5633432",
    "longitude": 77.0550072
  },
  {
    "name": "Safdarjung Enclave",
    "latitude": "28.564726",
    "longitude": 77.1949164
  },
  {
    "name": "Lajpat Nagar",
    "latitude": "28.5649034",
    "longitude": 77.2403317
  },
  {
    "name": "Friends Colony",
    "latitude": "28.5668488",
    "longitude": 77.266388
  },
  {
    "name": "New Friends Colony",
    "latitude": "28.5674621",
    "longitude": 77.2691326
  },
  {
    "name": "South Extension 2",
    "latitude": "28.5700911",
    "longitude": 77.2193126
  },
  {
    "name": "Maharani Bagh",
    "latitude": "28.5714978",
    "longitude": 77.2640259
  },
  {
    "name": "Sector 8 Dwarka",
    "latitude": "28.5720379",
    "longitude": 77.070837
  },
  {
    "name": "South Extension Part 1",
    "latitude": "28.5732907",
    "longitude": 77.2219418
  },
  {
    "name": "West End",
    "latitude": "28.5744821",
    "longitude": 77.1635927
  },
  {
    "name": "Shanti Niketan",
    "latitude": "28.5779173",
    "longitude": 77.1693661
  },
  {
    "name": "Anand Niketan",
    "latitude": "28.5789383",
    "longitude": 77.1650527
  },
  {
    "name": "Sector 19 Dwarka",
    "latitude": "28.5860795",
    "longitude": 77.0486422
  },
  {
    "name": "Jor Bagh",
    "latitude": "28.5877575",
    "longitude": 77.215312
  },
  {
    "name": "Palam",
    "latitude": "28.5900637",
    "longitude": 77.0887828
  },
  {
    "name": "Sector 12 Dwarka",
    "latitude": "28.5937647",
    "longitude": 77.0434934
  },
  {
    "name": "Sector 1 Dwarka",
    "latitude": "28.5960358",
    "longitude": 77.0744343
  },
  {
    "name": "Golf Links",
    "latitude": "28.5973381",
    "longitude": 77.2322727
  },
  {
    "name": "Prithviraj Road",
    "latitude": "28.5975876",
    "longitude": 77.2185875
  },
  {
    "name": "Tuglak Road",
    "latitude": "28.5977601",
    "longitude": 77.2112055
  },
  {
    "name": "Mahavir Enclave",
    "latitude": "28.5993858",
    "longitude": 77.0817494
  },
  {
    "name": "Aurungzeb Road",
    "latitude": "28.5995757",
    "longitude": 77.215456
  },
  {
    "name": "Malcha Marg",
    "latitude": "28.6015047",
    "longitude": 77.185978
  },
  {
    "name": "Sunder Nagar",
    "latitude": "28.6016775",
    "longitude": 77.2433795
  },
  {
    "name": "Matiala",
    "latitude": "28.6083508",
    "longitude": 77.0506261
  },
  {
    "name": "Najafgarh",
    "latitude": "28.6090126",
    "longitude": 76.9854526
  },
  {
    "name": "Bindapur",
    "latitude": "28.6104122",
    "longitude": 77.0686162
  },
  {
    "name": "Shanti Park Dwarka",
    "latitude": "28.6184011",
    "longitude": 77.0352171
  },
  {
    "name": "Uttam Nagar",
    "latitude": "28.6195574",
    "longitude": 77.0549901
  },
  {
    "name": "Janakpuri",
    "latitude": "28.621899",
    "longitude": 77.0878385
  },
  {
    "name": "Dwarka Mor",
    "latitude": "28.6230719",
    "longitude": 77.0277157
  },
  {
    "name": "Hari Nagar",
    "latitude": "28.6248596",
    "longitude": 77.1108681
  },
  {
    "name": "Laxmi Nagar",
    "latitude": "28.6275609",
    "longitude": 77.2784081
  },
  {
    "name": "Naraina",
    "latitude": "28.632047",
    "longitude": 77.1389094
  },
  {
    "name": "Rajinder Nagar",
    "latitude": "28.6372353",
    "longitude": 77.1823638
  },
  {
    "name": "Vikaspuri",
    "latitude": "28.6386438",
    "longitude": 77.07206
  },
  {
    "name": "Tilak Nagar",
    "latitude": "28.6389315",
    "longitude": 77.0866811
  },
  {
    "name": "Shyam Nagar",
    "latitude": "28.6475361",
    "longitude": 77.1032095
  },
  {
    "name": "Kirti Nagar",
    "latitude": "28.6493776",
    "longitude": 77.1436998
  },
  {
    "name": "Krishna Nagar",
    "latitude": "28.6509821",
    "longitude": 77.286333
  },
  {
    "name": "Karol Bagh",
    "latitude": "28.6550458",
    "longitude": 77.1888201
  },
  {
    "name": "Moti Nagar",
    "latitude": "28.6582349",
    "longitude": 77.1432671
  },
  {
    "name": "Paschim Vihar",
    "latitude": "28.6691255",
    "longitude": 77.0928656
  },
  {
    "name": "Shahdara",
    "latitude": "28.6713752",
    "longitude": 77.2692261
  },
  {
    "name": "Ram Nagar",
    "latitude": "28.6802872",
    "longitude": 77.2958239
  },
  {
    "name": "Dilshad Garden",
    "latitude": "28.6828082",
    "longitude": 77.3121354
  },
  {
    "name": "Babarpur",
    "latitude": "28.6849266",
    "longitude": 77.2824253
  },
  {
    "name": "Keshavpuram",
    "latitude": "28.6874636",
    "longitude": 77.157839
  },
  {
    "name": "Ashok Vihar",
    "latitude": "28.6909791",
    "longitude": 77.1765239
  },
  {
    "name": "Pitampura",
    "latitude": "28.6989703",
    "longitude": 77.1387225
  },
  {
    "name": "Sector 9 Rohini",
    "latitude": "28.7161663",
    "longitude": 77.1240672
  },
  {
    "name": "Adarsh Nagar",
    "latitude": "28.7192604",
    "longitude": 77.173582
  },
  {
    "name": "Rohini Sector 24",
    "latitude": "28.7284523",
    "longitude": 77.0881034
  },
  {
    "name": "Burari",
    "latitude": "28.7582634",
    "longitude": 77.1946018
  },
  {
    "name": "Dona Paula",
    "latitude": "15.4547",
    "longitude": 73.8045
  },
  {
    "name": "Salcete",
    "latitude": "15.2559657",
    "longitude": 73.98818447
  },
  {
    "name": "Dabolim",
    "latitude": "15.3896948",
    "longitude": 73.8528925
  },
  {
    "name": "Sancoale",
    "latitude": "15.4064",
    "longitude": 73.89294
  },
  {
    "name": "Caranzalem",
    "latitude": "15.4677228",
    "longitude": 73.8079977
  },
  {
    "name": "Candolim",
    "latitude": "15.5201532",
    "longitude": 73.7659422
  },
  {
    "name": "Porvorim",
    "latitude": "15.5249883",
    "longitude": 73.8321746
  },
  {
    "name": "Sangolda",
    "latitude": "15.5454334",
    "longitude": 73.8114185
  },
  {
    "name": "Calangute",
    "latitude": "15.5460146",
    "longitude": 73.763253
  },
  {
    "name": "Aldona",
    "latitude": "15.5896313",
    "longitude": 73.8710503
  },
  {
    "name": "Mapusa",
    "latitude": "15.5926511",
    "longitude": 73.8119741
  },
  {
    "name": "Tivim",
    "latitude": "15.6262577",
    "longitude": 73.8745705
  },
  {
    "name": "Siolim",
    "latitude": "15.6270222",
    "longitude": 73.7656851
  },
  {
    "name": "Nerul",
    "latitude": "15.5075",
    "longitude": 73.7843
  },
  {
    "name": "Reis Magos",
    "latitude": "15.5076",
    "longitude": 73.8099
  },
  {
    "name": "Socorro",
    "latitude": "15.5565",
    "longitude": 73.836
  },
  {
    "name": "Verla",
    "latitude": "15.5897",
    "longitude": 73.786
  },
  {
    "name": "Ramachandrapuram",
    "latitude": "16.8372408",
    "longitude": 82.0325401
  },
  {
    "name": "Kadthal",
    "latitude": "16.983683",
    "longitude": 78.5007657
  },
  {
    "name": "Maheshwaram",
    "latitude": "17.1350856",
    "longitude": 78.4329948
  },
  {
    "name": "Pocharam",
    "latitude": "17.1728855",
    "longitude": 78.6058242
  },
  {
    "name": "Tukkuguda",
    "latitude": "17.2090762",
    "longitude": 78.4761307
  },
  {
    "name": "Adibatla",
    "latitude": "17.2335311",
    "longitude": 78.5425543
  },
  {
    "name": "Shamshabad",
    "latitude": "17.2619301",
    "longitude": 78.387971
  },
  {
    "name": "Moinabad",
    "latitude": "17.3268277",
    "longitude": 78.2746658
  },
  {
    "name": "Hayathnagar",
    "latitude": "17.3270709",
    "longitude": 78.6053386
  },
  {
    "name": "Vanasthalipuram",
    "latitude": "17.3317096",
    "longitude": 78.5753592
  },
  {
    "name": "Budvel",
    "latitude": "17.3343684",
    "longitude": 78.4064687
  },
  {
    "name": "Kismatpur",
    "latitude": "17.3380151",
    "longitude": 78.3825994
  },
  {
    "name": "Lb Nagar",
    "latitude": "17.3457176",
    "longitude": 78.5522296
  },
  {
    "name": "Appa Junction",
    "latitude": "17.34972",
    "longitude": 78.360263
  },
  {
    "name": "Appa Junction Peerancheru",
    "latitude": "17.3503184",
    "longitude": 78.35917
  },
  {
    "name": "Mansoorabad",
    "latitude": "17.3513367",
    "longitude": 78.5625531
  },
  {
    "name": "Saroornagar",
    "latitude": "17.3529457",
    "longitude": 78.5356595
  },
  {
    "name": "Saidabad",
    "latitude": "17.3573882",
    "longitude": 78.5112407
  },
  {
    "name": "Auto Nagar",
    "latitude": "17.3578951",
    "longitude": 78.5831181
  },
  {
    "name": "Bandlaguda Jagir",
    "latitude": "17.3629719",
    "longitude": 78.3943263
  },
  {
    "name": "Attapur",
    "latitude": "17.3667195",
    "longitude": 78.4285084
  },
  {
    "name": "Dilsukh Nagar",
    "latitude": "17.3684658",
    "longitude": 78.5315941
  },
  {
    "name": "Nagole",
    "latitude": "17.3714737",
    "longitude": 78.5695016
  },
  {
    "name": "Manchirevula",
    "latitude": "17.3727683",
    "longitude": 78.3498129
  },
  {
    "name": "Kothapet",
    "latitude": "17.3730192",
    "longitude": 78.547636
  },
  {
    "name": "Gandipet",
    "latitude": "17.3806863",
    "longitude": 78.3244788
  },
  {
    "name": "Narsingi",
    "latitude": "17.3875755",
    "longitude": 78.3572111
  },
  {
    "name": "Amberpet",
    "latitude": "17.3920179",
    "longitude": 78.5162559
  },
  {
    "name": "Kokapet",
    "latitude": "17.3932777",
    "longitude": 78.3411448
  },
  {
    "name": "Puppalaguda",
    "latitude": "17.3982116",
    "longitude": 78.3748513
  },
  {
    "name": "Uppal",
    "latitude": "17.3983774",
    "longitude": 78.5582652
  },
  {
    "name": "Uppal Kalan",
    "latitude": "17.3983774",
    "longitude": 78.5582652
  },
  {
    "name": "Narayanguda",
    "latitude": "17.3985568",
    "longitude": 78.4929521
  },
  {
    "name": "Toli Chowki",
    "latitude": "17.3990023",
    "longitude": 78.4156933
  },
  {
    "name": "Peerzadiguda",
    "latitude": "17.3990571",
    "longitude": 78.6098059
  },
  {
    "name": "Nallakunta",
    "latitude": "17.3991274",
    "longitude": 78.5017083
  },
  {
    "name": "Himayat Nagar",
    "latitude": "17.4020637",
    "longitude": 78.4840052
  },
  {
    "name": "Shaikpet",
    "latitude": "17.4059875",
    "longitude": 78.3908428
  },
  {
    "name": "Manikonda",
    "latitude": "17.4062155",
    "longitude": 78.3763486
  },
  {
    "name": "Habsiguda",
    "latitude": "17.4066234",
    "longitude": 78.5437741
  },
  {
    "name": "Panchavati Colony",
    "latitude": "17.4103214",
    "longitude": 78.3813813
  },
  {
    "name": "Boduppal",
    "latitude": "17.41412",
    "longitude": 78.5790607
  },
  {
    "name": "Film Nagar",
    "latitude": "17.4160258",
    "longitude": 78.4113656
  },
  {
    "name": "Banjara Hills",
    "latitude": "17.416889",
    "longitude": 78.43867
  },
  {
    "name": "Nanakramguda",
    "latitude": "17.4169142",
    "longitude": 78.3423777
  },
  {
    "name": "Raidurgam",
    "latitude": "17.4178301",
    "longitude": 78.3889717
  },
  {
    "name": "Shankarpally Road",
    "latitude": "17.418676",
    "longitude": 78.2231983
  },
  {
    "name": "Khajaguda Nanakramguda Road",
    "latitude": "17.419624",
    "longitude": 78.353312
  },
  {
    "name": "Somajiguda",
    "latitude": "17.4237128",
    "longitude": 78.4584013
  },
  {
    "name": "Tarnaka",
    "latitude": "17.4300625",
    "longitude": 78.5415931
  },
  {
    "name": "Nacharam",
    "latitude": "17.4308087",
    "longitude": 78.559548
  },
  {
    "name": "Sri Nagar Colony",
    "latitude": "17.4321456",
    "longitude": 78.4384747
  },
  {
    "name": "Jubilee Hills",
    "latitude": "17.4325894",
    "longitude": 78.4070691
  },
  {
    "name": "Gopanpally",
    "latitude": "17.4357902",
    "longitude": 78.3012018
  },
  {
    "name": "Ameerpet",
    "latitude": "17.4375084",
    "longitude": 78.4482441
  },
  {
    "name": "Mokila",
    "latitude": "17.4393361",
    "longitude": 78.1849427
  },
  {
    "name": "Gachibowli",
    "latitude": "17.4400802",
    "longitude": 78.3489168
  },
  {
    "name": "Osman Nagar",
    "latitude": "17.4415837",
    "longitude": 78.2785379
  },
  {
    "name": "Hitech City",
    "latitude": "17.4434646",
    "longitude": 78.3771953
  },
  {
    "name": "Kollur",
    "latitude": "17.4436",
    "longitude": 78.2509
  },
  {
    "name": "Begumpet",
    "latitude": "17.4447068",
    "longitude": 78.4663812
  },
  {
    "name": "Mallapur",
    "latitude": "17.4464663",
    "longitude": 78.5745744
  },
  {
    "name": "Madhapur",
    "latitude": "17.4485835",
    "longitude": 78.3908035
  },
  {
    "name": "Malkajgiri",
    "latitude": "17.4503375",
    "longitude": 78.5322481
  },
  {
    "name": "Gopanapalli",
    "latitude": "17.451398",
    "longitude": 78.3092426
  },
  {
    "name": "West Marredpally",
    "latitude": "17.4523906",
    "longitude": 78.5060029
  },
  {
    "name": "Shankarpalli",
    "latitude": "17.4553645",
    "longitude": 78.1311666
  },
  {
    "name": "Sanath Nagar",
    "latitude": "17.4562544",
    "longitude": 78.4439295
  },
  {
    "name": "Tellapur",
    "latitude": "17.463172",
    "longitude": 78.2864815
  },
  {
    "name": "Kothaguda",
    "latitude": "17.4643489",
    "longitude": 78.3755955
  },
  {
    "name": "Moosapet",
    "latitude": "17.4664636",
    "longitude": 78.4254105
  },
  {
    "name": "Rampally",
    "latitude": "17.4671913",
    "longitude": 78.6418696
  },
  {
    "name": "Neredmet",
    "latitude": "17.4684272",
    "longitude": 78.5354118
  },
  {
    "name": "Bowenpally",
    "latitude": "17.4685901",
    "longitude": 78.4810648
  },
  {
    "name": "Kondapur",
    "latitude": "17.4698577",
    "longitude": 78.3578246
  },
  {
    "name": "Velimela",
    "latitude": "17.4739025",
    "longitude": 78.2276776
  },
  {
    "name": "Nallagandla Gachibowli",
    "latitude": "17.4747785",
    "longitude": 78.3102918
  },
  {
    "name": "Trimalgherry",
    "latitude": "17.4777385",
    "longitude": 78.510745
  },
  {
    "name": "As Rao Nagar",
    "latitude": "17.4784775",
    "longitude": 78.5506371
  },
  {
    "name": "Old Bowenpally",
    "latitude": "17.4798291",
    "longitude": 78.4812494
  },
  {
    "name": "Kushaiguda",
    "latitude": "17.4802826",
    "longitude": 78.5699471
  },
  {
    "name": "Balanagar",
    "latitude": "17.4813993",
    "longitude": 78.4489935
  },
  {
    "name": "Lingampally",
    "latitude": "17.4836979",
    "longitude": 78.3158338
  },
  {
    "name": "Serilingampally",
    "latitude": "17.4836979",
    "longitude": 78.3158338
  },
  {
    "name": "Hafeezpet",
    "latitude": "17.4841683",
    "longitude": 78.3602942
  },
  {
    "name": "Nagaram",
    "latitude": "17.485291",
    "longitude": 78.6098847
  },
  {
    "name": "Kukatpally",
    "latitude": "17.4875418",
    "longitude": 78.3953462
  },
  {
    "name": "Kapra",
    "latitude": "17.4885251",
    "longitude": 78.5681716
  },
  {
    "name": "Sainikpuri",
    "latitude": "17.492838",
    "longitude": 78.5469015
  },
  {
    "name": "Chandanagar",
    "latitude": "17.4934113",
    "longitude": 78.3277948
  },
  {
    "name": "Alwal",
    "latitude": "17.4967016",
    "longitude": 78.5066233
  },
  {
    "name": "Pragathi Nagar Kukatpally",
    "latitude": "17.497722",
    "longitude": 78.3944485
  },
  {
    "name": "Dammaiguda",
    "latitude": "17.5003026",
    "longitude": 78.5938192
  },
  {
    "name": "Hyder Nagar",
    "latitude": "17.5011026",
    "longitude": 78.3851635
  },
  {
    "name": "Yapral",
    "latitude": "17.5060153",
    "longitude": 78.5330044
  },
  {
    "name": "Patighanpur",
    "latitude": "17.5098538",
    "longitude": 78.2447667
  },
  {
    "name": "Miyapur",
    "latitude": "17.5169014",
    "longitude": 78.3428304
  },
  {
    "name": "Ameenpur",
    "latitude": "17.5171428",
    "longitude": 78.315742
  },
  {
    "name": "Aminpur",
    "latitude": "17.5171428",
    "longitude": 78.315742
  },
  {
    "name": "Beeramguda",
    "latitude": "17.518468",
    "longitude": 78.3038449
  },
  {
    "name": "Ramachandra Puram",
    "latitude": "17.5192439",
    "longitude": 78.3066246
  },
  {
    "name": "Nizampet",
    "latitude": "17.5196675",
    "longitude": 78.3778542
  },
  {
    "name": "Jeedimetla",
    "latitude": "17.5196968",
    "longitude": 78.4586419
  },
  {
    "name": "Mahadevpur Colony",
    "latitude": "17.5213474",
    "longitude": 78.4140817
  },
  {
    "name": "Bolarum",
    "latitude": "17.5217602",
    "longitude": 78.510961
  },
  {
    "name": "Patancheru",
    "latitude": "17.5287427",
    "longitude": 78.266725
  },
  {
    "name": "Gajularamaram",
    "latitude": "17.5349627",
    "longitude": 78.4022446
  },
  {
    "name": "Gajulramaram Kukatpally",
    "latitude": "17.5349627",
    "longitude": 78.4022446
  },
  {
    "name": "Krishna Reddy Pet",
    "latitude": "17.5358625",
    "longitude": 78.2903239
  },
  {
    "name": "Kompally",
    "latitude": "17.5366218",
    "longitude": 78.4844811
  },
  {
    "name": "Suraram",
    "latitude": "17.5412112",
    "longitude": 78.4338481
  },
  {
    "name": "Muthangi",
    "latitude": "17.5425548",
    "longitude": 78.2267425
  },
  {
    "name": "Kistareddypet",
    "latitude": "17.5433966",
    "longitude": 78.2945939
  },
  {
    "name": "Isnapur",
    "latitude": "17.546631",
    "longitude": 78.2131398
  },
  {
    "name": "Mallampet",
    "latitude": "17.5502182",
    "longitude": 78.3358612
  },
  {
    "name": "Bachupally",
    "latitude": "17.5513353",
    "longitude": 78.3855189
  },
  {
    "name": "Rameshwaram Banda",
    "latitude": "17.5559906",
    "longitude": 78.2786169
  },
  {
    "name": "Bahadurpally",
    "latitude": "17.5641438",
    "longitude": 78.4376862
  },
  {
    "name": "Indresham",
    "latitude": "17.5747889",
    "longitude": 78.2548589
  },
  {
    "name": "Bowrampet",
    "latitude": "17.5749425",
    "longitude": 78.3909517
  },
  {
    "name": "Lakdaram",
    "latitude": "17.5804216",
    "longitude": 78.2077368
  },
  {
    "name": "Gundlapochampalli",
    "latitude": "17.5898881",
    "longitude": 78.4155033
  },
  {
    "name": "Gundlapochampally",
    "latitude": "17.5898881",
    "longitude": 78.4155033
  },
  {
    "name": "Shamirpet",
    "latitude": "17.5958184",
    "longitude": 78.5712832
  },
  {
    "name": "Gagillapur",
    "latitude": "17.6127536",
    "longitude": 78.3894284
  },
  {
    "name": "Medchal",
    "latitude": "17.6323358",
    "longitude": 78.4804828
  },
  {
    "name": "Dundigal",
    "latitude": "17.6351238",
    "longitude": 78.4022158
  },
  {
    "name": "Nagulapally",
    "latitude": "17.8678153",
    "longitude": 78.4567223
  },
  {
    "name": "Bapu Nagar",
    "latitude": "17.4436",
    "longitude": 78.4418
  },
  {
    "name": "Rajendra Nagar",
    "latitude": "17.322",
    "longitude": 17.322
  },
  {
    "name": "Pati",
    "latitude": "17.492",
    "longitude": 78.2391
  },
  {
    "name": "Suchitra",
    "latitude": "17.5022",
    "longitude": 78.4716
  },
  {
    "name": "Pithampur",
    "latitude": "22.611121",
    "longitude": 75.6772689
  },
  {
    "name": "Rau",
    "latitude": "22.6399382",
    "longitude": 75.8033385
  },
  {
    "name": "New Rani Bagh",
    "latitude": "22.6684602",
    "longitude": 75.8780855
  },
  {
    "name": "Vaishali Nagar",
    "latitude": "22.6818927",
    "longitude": 75.8323882
  },
  {
    "name": "Sudama Nagar",
    "latitude": "22.6917042",
    "longitude": 75.831393
  },
  {
    "name": "Musakhedi",
    "latitude": "22.6923209",
    "longitude": 75.9039237
  },
  {
    "name": "Navlakha",
    "latitude": "22.6980012",
    "longitude": 75.8682878
  },
  {
    "name": "Bhicholi Mardana",
    "latitude": "22.7081414",
    "longitude": 75.9229596
  },
  {
    "name": "Pipliyahana",
    "latitude": "22.7093523",
    "longitude": 75.9014392
  },
  {
    "name": "Gokul Nagar",
    "latitude": "22.7250663",
    "longitude": 75.9305377
  },
  {
    "name": "Vijay Nagar",
    "latitude": "22.7532848",
    "longitude": 75.8936962
  },
  {
    "name": "Mahalakshmi Nagar",
    "latitude": "22.7590156",
    "longitude": 75.9129349
  },
  {
    "name": "Nipania",
    "latitude": "22.7617374",
    "longitude": 75.9273187
  },
  {
    "name": "Sukliya",
    "latitude": "22.7640774",
    "longitude": 75.87091
  },
  {
    "name": "Super Corridor",
    "latitude": "22.7691957",
    "longitude": 75.8162542
  },
  {
    "name": "Maya Khedi",
    "latitude": "22.7761864",
    "longitude": 75.9419693
  },
  {
    "name": "Bhawrasla",
    "latitude": "22.7930099",
    "longitude": 75.8471525
  },
  {
    "name": "Manglia",
    "latitude": "22.8167246",
    "longitude": 75.9255585
  },
  {
    "name": "Ab Bypass Road",
    "latitude": "22.8322418",
    "longitude": 75.938432
  },
  {
    "name": "Vaishali Nagar",
    "latitude": "26.9047751",
    "longitude": 75.7488641
  },
  {
    "name": "Ajmer Road",
    "latitude": "26.8938045",
    "longitude": 75.7472084
  },
  {
    "name": "Gopalpura",
    "latitude": "26.8813418",
    "longitude": 75.7814994
  },
  {
    "name": "Dholai",
    "latitude": "26.8390003",
    "longitude": 75.7469891
  },
  {
    "name": "Jhotwara",
    "latitude": "26.9545943",
    "longitude": 75.7455944
  },
  {
    "name": "Mansarovar Extension",
    "latitude": "26.8256901",
    "longitude": 75.7500497
  },
  {
    "name": "Ram Nagar",
    "latitude": "26.9007824",
    "longitude": 75.7783025
  },
  {
    "name": "Jagatpura",
    "latitude": "26.8176736",
    "longitude": 75.8617171
  },
  {
    "name": "Transport Nagar",
    "latitude": "26.9091785",
    "longitude": 75.8456936
  },
  {
    "name": "Sanganer",
    "latitude": "26.8191641",
    "longitude": 75.7659513
  },
  {
    "name": "Panchyawala",
    "latitude": "26.9152651",
    "longitude": 75.7174364
  },
  {
    "name": "Heerawala",
    "latitude": "26.8887749",
    "longitude": 75.7262264
  },
  {
    "name": "Mahindra Sez",
    "latitude": "26.8060945",
    "longitude": 75.6444112
  },
  {
    "name": "Sirsi",
    "latitude": "26.9104673",
    "longitude": 75.678566
  },
  {
    "name": "Shyam Nagar",
    "latitude": "26.888214",
    "longitude": 75.7611853
  },
  {
    "name": "Gandhi Path West",
    "latitude": "26.9049047",
    "longitude": 75.7234063
  },
  {
    "name": "Bapu Nagar",
    "latitude": "26.8898252",
    "longitude": 75.8083612
  },
  {
    "name": "Govindpura Kardhani Scheme",
    "latitude": "26.9550442",
    "longitude": 75.7104096
  },
  {
    "name": "Sikar Road",
    "latitude": "26.9805085",
    "longitude": 75.7745189
  },
  {
    "name": "Govindpuri",
    "latitude": "26.8936206",
    "longitude": 75.7788962
  },
  {
    "name": "Mansarovar",
    "latitude": "26.8504593",
    "longitude": 75.7627702
  },
  {
    "name": "Vidhyadhar Nagar",
    "latitude": "26.9621084",
    "longitude": 75.7816265
  },
  {
    "name": "Hathoj",
    "latitude": "26.9633188",
    "longitude": 75.6799257
  },
  {
    "name": "Maniyawas",
    "latitude": "26.8697005",
    "longitude": 75.7406046
  },
  {
    "name": "Bhankrota",
    "latitude": "26.8708346",
    "longitude": 75.6972666
  },
  {
    "name": "Karni Vihar",
    "latitude": "26.8823937",
    "longitude": 75.7356953
  },
  {
    "name": "Brijlalpura",
    "latitude": "26.8890502",
    "longitude": 75.7444172
  },
  {
    "name": "Alkapuri",
    "latitude": "26.9780551",
    "longitude": 75.762586
  },
  {
    "name": "Sitapura",
    "latitude": "26.7750872",
    "longitude": 75.8513938
  },
  {
    "name": "Chitrakoot Scheme",
    "latitude": "26.9020408",
    "longitude": 75.7357806
  },
  {
    "name": "Girdharipura",
    "latitude": "26.8937932",
    "longitude": 75.718867
  },
  {
    "name": "Govindpura",
    "latitude": "26.9533929",
    "longitude": 75.702683
  },
  {
    "name": "Sunder Nagar",
    "latitude": "26.8462853",
    "longitude": 75.756896
  },
  {
    "name": "Pratap Nagar",
    "latitude": "26.8036533",
    "longitude": 75.8084579
  },
  {
    "name": "Malviya Nagar",
    "latitude": "26.8548662",
    "longitude": 75.8242966
  },
  {
    "name": "Patrakar Colony",
    "latitude": "26.869157",
    "longitude": 75.7539772
  },
  {
    "name": "Gokulpura",
    "latitude": "26.9440621",
    "longitude": 75.7093318
  },
  {
    "name": "Ashok Nagar",
    "latitude": "26.9089009",
    "longitude": 75.8022011
  },
  {
    "name": "Khatipura",
    "latitude": "26.9280172",
    "longitude": 75.7480083
  },
  {
    "name": "Gajsinghpur",
    "latitude": "26.878548",
    "longitude": 75.7251924
  },
  {
    "name": "Tilak Nagar",
    "latitude": "26.8945243",
    "longitude": 75.8213018
  },
  {
    "name": "Niwaru",
    "latitude": "26.973788",
    "longitude": 75.7118038
  },
  {
    "name": "Harnathpura",
    "latitude": "26.9602687",
    "longitude": 75.7226116
  },
  {
    "name": "Adarsh Nagar",
    "latitude": "26.9018769",
    "longitude": 75.8271749
  },
  {
    "name": "Kalwar",
    "latitude": "26.9594335",
    "longitude": 75.6586295
  },
  {
    "name": "Muralipura",
    "latitude": "26.9776019",
    "longitude": 75.7639187
  },
  {
    "name": "Shahpura",
    "latitude": "27.3842893",
    "longitude": 75.9611437
  },
  {
    "name": "Shastri Nagar",
    "latitude": "26.9503102",
    "longitude": 75.8009833
  },
  {
    "name": "Kalwar Road",
    "latitude": "26.9531902",
    "longitude": 75.6984518
  },
  {
    "name": "Gokulpura Kalwar Road",
    "latitude": "26.9550375",
    "longitude": 75.6934918
  },
  {
    "name": "Sirsi Road",
    "latitude": "26.9230833",
    "longitude": 75.6905785
  },
  {
    "name": "Thikariya",
    "latitude": "26.853538",
    "longitude": 75.6293796
  },
  {
    "name": "Subhash Nagar",
    "latitude": "26.9326667",
    "longitude": 75.8029484
  },
  {
    "name": "Hatoj Kalwar Jaipur Road",
    "latitude": "26.9536702",
    "longitude": 75.6970807
  },
  {
    "name": "Niwaru Road",
    "latitude": "26.9653047",
    "longitude": 75.7244799
  },
  {
    "name": "Ayodhya Nagar",
    "latitude": "26.9021627",
    "longitude": 75.7247923
  },
  {
    "name": "Kakadev",
    "latitude": "26.4804247",
    "longitude": 80.2911559
  },
  {
    "name": "Lajpat Nagar",
    "latitude": "26.4688449",
    "longitude": 80.3066861
  },
  {
    "name": "Keshavpuram",
    "latitude": "26.4869995",
    "longitude": 80.2741993
  },
  {
    "name": "Pandu Nagar",
    "latitude": "26.4733386",
    "longitude": 80.2976316
  },
  {
    "name": "Kalyanpur",
    "latitude": "26.510822",
    "longitude": 80.2468661
  },
  {
    "name": "Kidwai Nagar",
    "latitude": "26.4275236",
    "longitude": 80.3353368
  },
  {
    "name": "Tilak Nagar",
    "latitude": "26.4895806",
    "longitude": 80.3224842
  },
  {
    "name": "Swaroop Nagar",
    "latitude": "26.4878169",
    "longitude": 80.3206131
  },
  {
    "name": "Shastri Nagar",
    "latitude": "26.4638899",
    "longitude": 80.3005664
  },
  {
    "name": "Sarvodaya Nagar",
    "latitude": "26.4797497",
    "longitude": 80.3059896
  },
  {
    "name": "Sharda Nagar",
    "latitude": "26.4861403",
    "longitude": 80.2857005
  },
  {
    "name": "Keshav Nagar",
    "latitude": "26.4279797",
    "longitude": 80.3132408
  },
  {
    "name": "Shyam Nagar",
    "latitude": "26.4076522",
    "longitude": 80.36828
  },
  {
    "name": "Harsh Nagar",
    "latitude": "26.4729485",
    "longitude": 80.3150465
  },
  {
    "name": "Govind Nagar",
    "latitude": "26.4492218",
    "longitude": 80.3093914
  },
  {
    "name": "Naubasta",
    "latitude": "26.4017716",
    "longitude": 80.314458
  },
  {
    "name": "Indira Nagar",
    "latitude": "26.5090151",
    "longitude": 80.264191
  },
  {
    "name": "Baguiati",
    "latitude": "22.6137645",
    "longitude": 88.4305721
  },
  {
    "name": "Rajarhat",
    "latitude": "22.5753931",
    "longitude": 88.4797903
  },
  {
    "name": "Rajpur",
    "latitude": "22.4473303",
    "longitude": 88.3919562
  },
  {
    "name": "Garia",
    "latitude": "22.4660129",
    "longitude": 88.3928446
  },
  {
    "name": "Kasba",
    "latitude": "22.5195362",
    "longitude": 88.3827505
  },
  {
    "name": "New Town",
    "latitude": "22.5753931",
    "longitude": 88.4797903
  },
  {
    "name": "Haltu",
    "latitude": "22.5048386",
    "longitude": 88.388459
  },
  {
    "name": "Sodepur",
    "latitude": "22.6991808",
    "longitude": 88.3902299
  },
  {
    "name": "Dankuni",
    "latitude": "22.6809296",
    "longitude": 88.2970142
  },
  {
    "name": "Maheshtala",
    "latitude": "22.5055897",
    "longitude": 88.2500038
  },
  {
    "name": "Khardah",
    "latitude": "22.7008241",
    "longitude": 88.3748212
  },
  {
    "name": "Howrah",
    "latitude": "22.572646",
    "longitude": 88.363895
  },
  {
    "name": "Lake Gardens",
    "latitude": "22.5057437",
    "longitude": 88.3567163
  },
  {
    "name": "Madhyamgram",
    "latitude": "22.6924004",
    "longitude": 88.4653367
  },
  {
    "name": "Konnagar",
    "latitude": "22.699652",
    "longitude": 88.3183261
  },
  {
    "name": "Baranagar",
    "latitude": "22.6437356",
    "longitude": 88.3776948
  },
  {
    "name": "Barasat",
    "latitude": "22.7247556",
    "longitude": 88.4789351
  },
  {
    "name": "Andul",
    "latitude": "22.5943202",
    "longitude": 88.2437502
  },
  {
    "name": "Serampore",
    "latitude": "22.7505213",
    "longitude": 88.3405772
  },
  {
    "name": "Tollygunge",
    "latitude": "22.4986357",
    "longitude": 88.3453906
  },
  {
    "name": "Behala",
    "latitude": "22.5015719",
    "longitude": 88.3209437
  },
  {
    "name": "New Alipore",
    "latitude": "22.5090392",
    "longitude": 88.3329427
  },
  {
    "name": "Dunlop",
    "latitude": "22.651934",
    "longitude": 88.3785594
  },
  {
    "name": "Agarpara",
    "latitude": "22.683442",
    "longitude": 88.3931185
  },
  {
    "name": "Dum Dum Cantonment",
    "latitude": "22.6420109",
    "longitude": 88.4311688
  },
  {
    "name": "Nayabad",
    "latitude": "22.4836355",
    "longitude": 88.4128223
  },
  {
    "name": "Dum Dum Park",
    "latitude": "22.6076364",
    "longitude": 88.4173644
  },
  {
    "name": "Bijoygarh",
    "latitude": "22.4882302",
    "longitude": 88.365664
  },
  {
    "name": "Netaji Nagar",
    "latitude": "22.48077",
    "longitude": 88.3576786
  },
  {
    "name": "Amtala",
    "latitude": "22.3668822",
    "longitude": 88.2777344
  },
  {
    "name": "Joka",
    "latitude": "22.45335",
    "longitude": 88.3025204
  },
  {
    "name": "Dum Dum",
    "latitude": "22.6420109",
    "longitude": 88.4311688
  },
  {
    "name": "Cossipore",
    "latitude": "22.6235612",
    "longitude": 88.3724567
  },
  {
    "name": "Ultadanga",
    "latitude": "22.5944516",
    "longitude": 88.3835325
  },
  {
    "name": "Malancha Mahi Nagar",
    "latitude": "22.4026864",
    "longitude": 88.4337218
  },
  {
    "name": "Kabardanga",
    "latitude": "22.5108747",
    "longitude": 88.3855348
  },
  {
    "name": "Chowhati",
    "latitude": "22.4049562",
    "longitude": 88.4076664
  },
  {
    "name": "Baruipur",
    "latitude": "22.3599251",
    "longitude": 88.4325462
  },
  {
    "name": "Thakurpukur",
    "latitude": "22.4625372",
    "longitude": 88.3155256
  },
  {
    "name": "Jadavpur",
    "latitude": "22.4954988",
    "longitude": 88.3709008
  },
  {
    "name": "Ariadaha",
    "latitude": "22.6470137",
    "longitude": 88.3666384
  },
  {
    "name": "Keshtopur",
    "latitude": "22.5971854",
    "longitude": 88.4370585
  },
  {
    "name": "East Kolkata Township",
    "latitude": "22.5135361",
    "longitude": 88.4001675
  },
  {
    "name": "Madurdaha Hussainpur",
    "latitude": "22.5032496",
    "longitude": 88.4052416
  },
  {
    "name": "Ballygunge",
    "latitude": "22.5280352",
    "longitude": 88.3659083
  },
  {
    "name": "Sector 22",
    "latitude": "22.5868905",
    "longitude": 88.351598
  },
  {
    "name": "Tiljala",
    "latitude": "22.5268906",
    "longitude": 88.385838
  },
  {
    "name": "Teghoria",
    "latitude": "22.6227201",
    "longitude": 88.4367538
  },
  {
    "name": "Tangra",
    "latitude": "22.5563167",
    "longitude": 88.388763
  },
  {
    "name": "Belghoria",
    "latitude": "22.6670286",
    "longitude": 88.379635
  },
  {
    "name": "Kankurgachi",
    "latitude": "22.5802167",
    "longitude": 88.3905869
  },
  {
    "name": "Regent Park",
    "latitude": "22.4874358",
    "longitude": 88.35494
  },
  {
    "name": "Mukundapur",
    "latitude": "22.4945845",
    "longitude": 88.4080261
  },
  {
    "name": "Narendrapur",
    "latitude": "22.4391117",
    "longitude": 88.3967536
  },
  {
    "name": "Kaikhali",
    "latitude": "22.6288304",
    "longitude": 88.4311275
  },
  {
    "name": "Gariahat",
    "latitude": "22.5170076",
    "longitude": 88.365819
  },
  {
    "name": "Salkia",
    "latitude": "22.6012849",
    "longitude": 88.3312686
  },
  {
    "name": "Picnic Garden",
    "latitude": "22.5305721",
    "longitude": 88.3815923
  },
  {
    "name": "Airport",
    "latitude": "22.6531496",
    "longitude": 88.4448719
  },
  {
    "name": "Chinar Park",
    "latitude": "22.6249719",
    "longitude": 88.4385711
  },
  {
    "name": "Lake Town",
    "latitude": "22.6034933",
    "longitude": 88.4039965
  },
  {
    "name": "Salt Lake City",
    "latitude": "22.5796842",
    "longitude": 88.414312
  },
  {
    "name": "Sarsuna",
    "latitude": "22.4810405",
    "longitude": 88.2834988
  },
  {
    "name": "Kalyani",
    "latitude": "22.9747271",
    "longitude": 88.433721
  },
  {
    "name": "Mourigram",
    "latitude": "22.5714571",
    "longitude": 88.270177
  },
  {
    "name": "Bansdroni",
    "latitude": "22.4707774",
    "longitude": 88.3617951
  },
  {
    "name": "Alipore",
    "latitude": "22.5251784",
    "longitude": 88.3308634
  },
  {
    "name": "Santragachi",
    "latitude": "22.5852017",
    "longitude": 88.2838601
  },
  {
    "name": "Panihati",
    "latitude": "22.6939468",
    "longitude": 88.4036649
  },
  {
    "name": "Barisha",
    "latitude": "22.4854866",
    "longitude": 88.3201185
  },
  {
    "name": "Kamalgazi",
    "latitude": "22.4495273",
    "longitude": 88.3955409
  },
  {
    "name": "Uttarpara Kotrung",
    "latitude": "22.6700938",
    "longitude": 88.3354998
  },
  {
    "name": "Dhakuria",
    "latitude": "22.5104166",
    "longitude": 88.3710975
  },
  {
    "name": "Sonarpur",
    "latitude": "22.4473303",
    "longitude": 88.3919562
  },
  {
    "name": "Barrackpore",
    "latitude": "22.7674278",
    "longitude": 88.3883455
  },
  {
    "name": "Chandannagar",
    "latitude": "22.867114",
    "longitude": 88.3674381
  },
  {
    "name": "Mankundu",
    "latitude": "22.8450817",
    "longitude": 88.3619458
  },
  {
    "name": "Bramhapur",
    "latitude": "22.4602448",
    "longitude": 88.364436
  },
  {
    "name": "Kamdahari",
    "latitude": "22.4566472",
    "longitude": 88.3763782
  },
  {
    "name": "Boral",
    "latitude": "22.4460661",
    "longitude": 88.3713095
  },
  {
    "name": "Dakshin Gobindopur",
    "latitude": "22.387366",
    "longitude": 88.4088792
  },
  {
    "name": "Ponmar",
    "latitude": "12.8564248",
    "longitude": 80.1707662
  },
  {
    "name": "New Garia",
    "latitude": "22.4696435",
    "longitude": 88.3961473
  },
  {
    "name": "Purba Putiary",
    "latitude": "22.4768158",
    "longitude": 88.3485091
  },
  {
    "name": "Barisha Purba Para Road",
    "latitude": "22.4698279",
    "longitude": 88.3139712
  },
  {
    "name": "Bally",
    "latitude": "22.6496657",
    "longitude": 88.3386447
  },
  {
    "name": "Rahara",
    "latitude": "22.7239929",
    "longitude": 88.3868072
  },
  {
    "name": "Liluah",
    "latitude": "22.6253823",
    "longitude": 88.329307
  },
  {
    "name": "Duillya",
    "latitude": "22.5804672",
    "longitude": 88.2468333
  },
  {
    "name": "Hooghly Chinsurah",
    "latitude": "22.9384014",
    "longitude": 88.4037111
  },
  {
    "name": "Tagore Park",
    "latitude": "22.5221369",
    "longitude": 88.3946314
  },
  {
    "name": "Santoshpur",
    "latitude": "22.4892926",
    "longitude": 88.3887629
  },
  {
    "name": "Nager Bazar",
    "latitude": "22.6217922",
    "longitude": 88.4179705
  },
  {
    "name": "Dhapa",
    "latitude": "22.5373419",
    "longitude": 88.4334463
  },
  {
    "name": "Patuli",
    "latitude": "22.4714457",
    "longitude": 88.3844319
  },
  {
    "name": "Beliaghata",
    "latitude": "22.5628793",
    "longitude": 88.3962477
  },
  {
    "name": "Paschim Barisha",
    "latitude": "22.4759556",
    "longitude": 88.3047444
  },
  {
    "name": "Kalighat",
    "latitude": "22.516951",
    "longitude": 88.3458699
  },
  {
    "name": "Bhawanipur",
    "latitude": "22.5332356",
    "longitude": 88.3459362
  },
  {
    "name": "Panchpota",
    "latitude": "22.4681143",
    "longitude": 88.4196348
  },
  {
    "name": "Baidyabati",
    "latitude": "22.7919231",
    "longitude": 88.3309595
  },
  {
    "name": "North Dumdum",
    "latitude": "22.6626085",
    "longitude": 88.4090043
  },
  {
    "name": "Paschim Putiary",
    "latitude": "22.4803617",
    "longitude": 88.3377795
  },
  {
    "name": "Hussainpur",
    "latitude": "22.5060225",
    "longitude": 88.4062609
  },
  {
    "name": "Kabardanga South Kolkata",
    "latitude": "22.5108747",
    "longitude": 88.3855348
  },
  {
    "name": "Jodhpur Park",
    "latitude": "22.5058175",
    "longitude": 88.3639986
  },
  {
    "name": "Saha Para",
    "latitude": "22.5045229",
    "longitude": 88.3462313
  },
  {
    "name": "Bhadreswar",
    "latitude": "22.5860129",
    "longitude": 88.355893
  },
  {
    "name": "Rajpur Sonarpur",
    "latitude": "22.4473303",
    "longitude": 88.3919562
  },
  {
    "name": "Baghajatin",
    "latitude": "22.4814642",
    "longitude": 88.3864445
  },
  {
    "name": "Topsia",
    "latitude": "22.5399241",
    "longitude": 88.3874402
  },
  {
    "name": "Sealdah",
    "latitude": "22.5654725",
    "longitude": 88.3712796
  },
  {
    "name": "Bhowanipore",
    "latitude": "22.5332356",
    "longitude": 88.3459362
  },
  {
    "name": "Baguihati",
    "latitude": "22.6107101",
    "longitude": 88.4270602
  },
  {
    "name": "Parnasree Pally",
    "latitude": "22.5062482",
    "longitude": 88.3018401
  },
  {
    "name": "Phool Bagan",
    "latitude": "22.5701957",
    "longitude": 88.3967536
  },
  {
    "name": "Birati",
    "latitude": "22.6636028",
    "longitude": 88.4272812
  },
  {
    "name": "Ram Nagar",
    "latitude": "22.5415773",
    "longitude": 88.2929441
  },
  {
    "name": "Uttar Gauripur",
    "latitude": "22.3873993",
    "longitude": 88.2923363
  },
  {
    "name": "Mominpore",
    "latitude": "22.5271364",
    "longitude": 88.3219284
  },
  {
    "name": "Metiabruz",
    "latitude": "22.5435708",
    "longitude": 88.267934
  },
  {
    "name": "Elgin",
    "latitude": "22.5437087",
    "longitude": 88.3548955
  },
  {
    "name": "Ashok Nagar",
    "latitude": "22.4829222",
    "longitude": 88.3467
  },
  {
    "name": "Ward No 113",
    "latitude": "22.4726508",
    "longitude": 88.3551357
  },
  {
    "name": "Thakurpukur Bazar",
    "latitude": "22.4639108",
    "longitude": 88.3061869
  },
  {
    "name": "Bangur",
    "latitude": "22.6075649",
    "longitude": 88.4100911
  },
  {
    "name": "Gomti Nagar Extension",
    "latitude": "26.8496217",
    "longitude": 81.0072193
  },
  {
    "name": "Indira Nagar",
    "latitude": "26.8798933",
    "longitude": 80.9926327
  },
  {
    "name": "Sushant Golf City",
    "latitude": "26.7881368",
    "longitude": 81.0050804
  },
  {
    "name": "Kursi Road",
    "latitude": "26.9271144",
    "longitude": 80.9725396
  },
  {
    "name": "Vrindavan Yojna",
    "latitude": "26.7650911",
    "longitude": 80.95714
  },
  {
    "name": "Faizabad Road",
    "latitude": "26.8733228",
    "longitude": 80.9960646
  },
  {
    "name": "Krishna Nagar",
    "latitude": "26.79636",
    "longitude": 80.8882087
  },
  {
    "name": "Uattardhona",
    "latitude": "26.8912141",
    "longitude": 81.0648758
  },
  {
    "name": "Arjunganj",
    "latitude": "26.8082089",
    "longitude": 80.9910306
  },
  {
    "name": "Chinhat",
    "latitude": "26.8743898",
    "longitude": 81.0349854
  },
  {
    "name": "Gomti Nagar",
    "latitude": "26.8496217",
    "longitude": 81.0072193
  },
  {
    "name": "Sultanpur Road",
    "latitude": "26.5264163",
    "longitude": 81.4937921
  },
  {
    "name": "Mohanlalganj",
    "latitude": "26.766611",
    "longitude": 80.9449643
  },
  {
    "name": "Bagiamau",
    "latitude": "26.7944552",
    "longitude": 81.0063451
  },
  {
    "name": "Alathur",
    "latitude": "9.9837694",
    "longitude": 78.1575122
  },
  {
    "name": "Uthangudi",
    "latitude": "9.9510478",
    "longitude": 78.1682177
  },
  {
    "name": "Iraniyam",
    "latitude": "9.995727",
    "longitude": 78.1784096
  },
  {
    "name": "Umachikulam",
    "latitude": "9.994195",
    "longitude": 78.1457539
  },
  {
    "name": "Oomachikulam Kadachaneanthal Road",
    "latitude": "9.9848343",
    "longitude": 78.1573284
  },
  {
    "name": "Karuppayurani",
    "latitude": "9.9328806",
    "longitude": 78.1778185
  },
  {
    "name": "Ottakadai",
    "latitude": "9.9584282",
    "longitude": 78.1876679
  },
  {
    "name": "Anna Nagar",
    "latitude": "9.9216153",
    "longitude": 78.1443279
  },
  {
    "name": "Taloja",
    "latitude": "19.0630113",
    "longitude": 73.120891
  },
  {
    "name": "Rasayani",
    "latitude": "18.902532",
    "longitude": 73.1975378
  },
  {
    "name": "Thane West",
    "latitude": "19.2467218",
    "longitude": 72.9759713
  },
  {
    "name": "Mulund West",
    "latitude": "19.1725542",
    "longitude": 72.942537
  },
  {
    "name": "Ghatkopar East",
    "latitude": "19.0785988",
    "longitude": 72.9101456
  },
  {
    "name": "Ulwe",
    "latitude": "18.972009",
    "longitude": 73.0348229
  },
  {
    "name": "Andheri West",
    "latitude": "19.1364016",
    "longitude": 72.8296252
  },
  {
    "name": "Naigaon East",
    "latitude": "19.3561143",
    "longitude": 72.8721845
  },
  {
    "name": "Borivali West",
    "latitude": "19.2380683",
    "longitude": 72.8522512
  },
  {
    "name": "Panvel",
    "latitude": "18.9894007",
    "longitude": 73.1175162
  },
  {
    "name": "Mira Road East",
    "latitude": "19.2856374",
    "longitude": 72.8691092
  },
  {
    "name": "Parel",
    "latitude": "18.9976573",
    "longitude": 72.8375932
  },
  {
    "name": "Boisar",
    "latitude": "19.7968929",
    "longitude": 72.7451817
  },
  {
    "name": "Santacruz East",
    "latitude": "19.0744426",
    "longitude": 72.8604874
  },
  {
    "name": "Badlapur East",
    "latitude": "19.1667854",
    "longitude": 73.2367896
  },
  {
    "name": "Badlapur West",
    "latitude": "19.1667854",
    "longitude": 73.2367896
  },
  {
    "name": "Khopoli",
    "latitude": "18.7939054",
    "longitude": 73.334643
  },
  {
    "name": "Chembur",
    "latitude": "19.0522115",
    "longitude": 72.900522
  },
  {
    "name": "Jogeshwari West",
    "latitude": "19.1438971",
    "longitude": 72.8427707
  },
  {
    "name": "Vasai",
    "latitude": "19.3919275",
    "longitude": 72.8397317
  },
  {
    "name": "Kalamboli",
    "latitude": "19.032803",
    "longitude": 73.1012153
  },
  {
    "name": "Powai",
    "latitude": "19.1175993",
    "longitude": 72.9059747
  },
  {
    "name": "Ghansoli",
    "latitude": "19.1253629",
    "longitude": 72.9992013
  },
  {
    "name": "Vikhroli",
    "latitude": "19.1141602",
    "longitude": 72.9357502
  },
  {
    "name": "Bhiwandi",
    "latitude": "19.2812547",
    "longitude": 73.0482912
  },
  {
    "name": "Airoli",
    "latitude": "19.159014",
    "longitude": 72.9985686
  },
  {
    "name": "Ambernath West",
    "latitude": "19.1825167",
    "longitude": 73.1926023
  },
  {
    "name": "Borivali East",
    "latitude": "19.2297814",
    "longitude": 72.8608559
  },
  {
    "name": "Virar",
    "latitude": "19.4563596",
    "longitude": 72.7924612
  },
  {
    "name": "Kharghar",
    "latitude": "19.0473216",
    "longitude": 73.0699046
  },
  {
    "name": "Jogeshwari East",
    "latitude": "19.1370256",
    "longitude": 72.8549697
  },
  {
    "name": "Palghar",
    "latitude": "19.0759837",
    "longitude": 72.8776559
  },
  {
    "name": "Goregaon West",
    "latitude": "19.1635793",
    "longitude": 72.8458804
  },
  {
    "name": "Dombivali",
    "latitude": "19.2094006",
    "longitude": 73.0939483
  },
  {
    "name": "Andheri East",
    "latitude": "19.1178548",
    "longitude": 72.8631304
  },
  {
    "name": "Karjat",
    "latitude": "18.9102069",
    "longitude": 73.3282612
  },
  {
    "name": "Dronagiri",
    "latitude": "18.8808997",
    "longitude": 72.9642445
  },
  {
    "name": "Kandivali West",
    "latitude": "19.1998211",
    "longitude": 72.842594
  },
  {
    "name": "Kandivali East",
    "latitude": "19.2004765",
    "longitude": 72.8736892
  },
  {
    "name": "Kurla East",
    "latitude": "19.0620527",
    "longitude": 72.8834355
  },
  {
    "name": "Dahisar",
    "latitude": "19.2494357",
    "longitude": 72.8596279
  },
  {
    "name": "Neral",
    "latitude": "19.0229668",
    "longitude": 73.3175272
  },
  {
    "name": "Ambernath East",
    "latitude": "19.0759837",
    "longitude": 72.8776559
  },
  {
    "name": "Wadala",
    "latitude": "19.0148695",
    "longitude": 72.863143
  },
  {
    "name": "Bhayandar East",
    "latitude": "19.3043344",
    "longitude": 72.8589699
  },
  {
    "name": "Sion",
    "latitude": "19.0390214",
    "longitude": 72.8618952
  },
  {
    "name": "Dombivali East",
    "latitude": "19.2161427",
    "longitude": 73.0989616
  },
  {
    "name": "Dombivli (West)",
    "latitude": "19.2188997",
    "longitude": 73.0807259
  },
  {
    "name": "Malad West",
    "latitude": "19.1889541",
    "longitude": 72.835543
  },
  {
    "name": "Seawoods",
    "latitude": "19.0171035",
    "longitude": 73.0175089
  },
  {
    "name": "Nerul",
    "latitude": "19.0338457",
    "longitude": 73.0195871
  },
  {
    "name": "Byculla",
    "latitude": "18.975024",
    "longitude": 72.8295176
  },
  {
    "name": "Kanjurmarg",
    "latitude": "19.1293739",
    "longitude": 72.9330185
  },
  {
    "name": "Ghatkopar West",
    "latitude": "19.0908063",
    "longitude": 72.9076669
  },
  {
    "name": "Malad East",
    "latitude": "19.1853779",
    "longitude": 72.8584758
  },
  {
    "name": "Bhandup West",
    "latitude": "19.1623701",
    "longitude": 72.9376316
  },
  {
    "name": "Bandra East",
    "latitude": "19.060927",
    "longitude": 72.8465307
  },
  {
    "name": "Santacruz West",
    "latitude": "19.0840704",
    "longitude": 72.8380186
  },
  {
    "name": "Thane East",
    "latitude": "19.1834895",
    "longitude": 72.9780731
  },
  {
    "name": "Santosh Nagar",
    "latitude": "19.1700983",
    "longitude": 72.8762862
  },
  {
    "name": "Kalyan West",
    "latitude": "19.0759837",
    "longitude": 72.8776559
  },
  {
    "name": "Kamothe",
    "latitude": "19.0166223",
    "longitude": 73.0966019
  },
  {
    "name": "Thakurli",
    "latitude": "19.221876",
    "longitude": 73.1003183
  },
  {
    "name": "Taloje",
    "latitude": "19.0630113",
    "longitude": 73.120891
  },
  {
    "name": "Shil Phata",
    "latitude": "19.1435322",
    "longitude": 73.046473
  },
  {
    "name": "Titwala",
    "latitude": "19.2961189",
    "longitude": 73.2034805
  },
  {
    "name": "Karanjade",
    "latitude": "18.9732877",
    "longitude": 73.1098806
  },
  {
    "name": "Deonar",
    "latitude": "19.0447048",
    "longitude": 72.9102511
  },
  {
    "name": "Kalyan East",
    "latitude": "19.2299184",
    "longitude": 73.1338062
  },
  {
    "name": "Nahur East",
    "latitude": "19.1538107",
    "longitude": 72.9504858
  },
  {
    "name": "Virar West",
    "latitude": "19.4559185",
    "longitude": 72.7762815
  },
  {
    "name": "Nala Sopara",
    "latitude": "19.4198627",
    "longitude": 72.8116591
  },
  {
    "name": "Goregaon East",
    "latitude": "19.1662566",
    "longitude": 72.8525696
  },
  {
    "name": "Lower Parel",
    "latitude": "18.9982461",
    "longitude": 72.8269646
  },
  {
    "name": "Kurla",
    "latitude": "19.0726295",
    "longitude": 72.8844721
  },
  {
    "name": "Mahalaxmi",
    "latitude": "18.9865217",
    "longitude": 72.8182877
  },
  {
    "name": "Koper Khairane",
    "latitude": "19.1045461",
    "longitude": 73.0032996
  },
  {
    "name": "Sanpada",
    "latitude": "19.0600613",
    "longitude": 73.0139862
  },
  {
    "name": "Vikroli East",
    "latitude": "19.1141602",
    "longitude": 72.9357502
  },
  {
    "name": "Greater Khanda",
    "latitude": "19.0759837",
    "longitude": 72.8776559
  },
  {
    "name": "Belapur",
    "latitude": "19.0237174",
    "longitude": 73.0403933
  },
  {
    "name": "Anjurdive",
    "latitude": "19.2297526",
    "longitude": 73.0348904
  },
  {
    "name": "Juinagar",
    "latitude": "19.0506956",
    "longitude": 73.0154376
  },
  {
    "name": "Dadar East",
    "latitude": "19.0099129",
    "longitude": 72.8426858
  },
  {
    "name": "Mulund East",
    "latitude": "19.1582215",
    "longitude": 72.9597433
  },